[
  {
    "id": "pp-0001",
    "name": "Carter Baptist Church",
    "address": "3426 Valley Blvd",
    "city": "Reston",
    "county": "Fairfax County",
    "state": "VA",
    "zip": "22068",
    "latitude": 39.0052,
    "longitude": -77.3233,
    "total_voters": 2251,
    "multi_state_registrations": 60,
    "recent_registrations": 135,
    "purged_voters": 19,
    "risk_score": 49
  },
  {
    "id": "pp-0002",
    "name": "Fillmore High School",
    "address": "2882 Willow Ln",
    "city": "Manassas",
    "county": "Prince William County",
    "state": "VA",
    "zip": "20149",
    "latitude": 38.7665,
    "longitude": -77.4846,
    "total_voters": 985,
    "multi_state_registrations": 28,
    "recent_registrations": 103,
    "purged_voters": 27,
    "risk_score": 33
  },
  {
    "id": "pp-0003",
    "name": "Adams Elementary School",
    "address": "9923 Freedom Dr",
    "city": "Herndon",
    "county": "Fairfax County",
    "state": "VA",
    "zip": "22042",
    "latitude": 38.9622,
    "longitude": -77.3436,
    "total_voters": 806,
    "multi_state_registrations": 11,
    "recent_registrations": 50,
    "purged_voters": 10,
    "risk_score": 28
  },
  {
    "id": "pp-0004",
    "name": "Jackson Presbyterian Church",
    "address": "2025 Second Pl",
    "city": "Alexandria",
    "county": "Alexandria City",
    "state": "VA",
    "zip": "22336",
    "latitude": 38.8032,
    "longitude": -77.0947,
    "total_voters": 1768,
    "multi_state_registrations": 47,
    "recent_registrations": 188,
    "purged_voters": 40,
    "risk_score": 76
  },
  {
    "id": "pp-0005",
    "name": "Oak Recreation Center",
    "address": "6840 Washington Cir",
    "city": "Manassas",
    "county": "Prince William County",
    "state": "VA",
    "zip": "20116",
    "latitude": 38.7262,
    "longitude": -77.449,
    "total_voters": 2209,
    "multi_state_registrations": 75,
    "recent_registrations": 216,
    "purged_voters": 55,
    "risk_score": 64
  },
  {
    "id": "pp-0006",
    "name": "Freedom Community Hall",
    "address": "1379 Broad Dr",
    "city": "Vienna",
    "county": "Fairfax County",
    "state": "VA",
    "zip": "22075",
    "latitude": 38.8838,
    "longitude": -77.2756,
    "total_voters": 2316,
    "multi_state_registrations": 38,
    "recent_registrations": 155,
    "purged_voters": 37,
    "risk_score": 54
  },
  {
    "id": "pp-0007",
    "name": "Johnson High School",
    "address": "3113 Church Way",
    "city": "Fairfax",
    "county": "Fairfax County",
    "state": "VA",
    "zip": "22044",
    "latitude": 38.8005,
    "longitude": -77.2667,
    "total_voters": 1196,
    "multi_state_registrations": 30,
    "recent_registrations": 43,
    "purged_voters": 18,
    "risk_score": 35
  },
  {
    "id": "pp-0008",
    "name": "Second Primary School",
    "address": "9605 Church Dr",
    "city": "Fairfax",
    "county": "Fairfax County",
    "state": "VA",
    "zip": "22058",
    "latitude": 38.8472,
    "longitude": -77.2611,
    "total_voters": 1286,
    "multi_state_registrations": 55,
    "recent_registrations": 174,
    "purged_voters": 12,
    "risk_score": 84
  },
  {
    "id": "pp-0009",
    "name": "Hoover Community Hall",
    "address": "3483 Jackson Ave",
    "city": "Manassas",
    "county": "Prince William County",
    "state": "VA",
    "zip": "20158",
    "latitude": 38.7246,
    "longitude": -77.4652,
    "total_voters": 880,
    "multi_state_registrations": 22,
    "recent_registrations": 44,
    "purged_voters": 11,
    "risk_score": 50
  },
  {
    "id": "pp-0010",
    "name": "First Community Center",
    "address": "5777 Market Cir",
    "city": "Leesburg",
    "county": "Loudoun County",
    "state": "VA",
    "zip": "20176",
    "latitude": 39.1325,
    "longitude": -77.5336,
    "total_voters": 1371,
    "multi_state_registrations": 55,
    "recent_registrations": 38,
    "purged_voters": 24,
    "risk_score": 35
  },
  {
    "id": "pp-0011",
    "name": "Polk Civic Center",
    "address": "7395 Spruce Ct",
    "city": "Manassas",
    "county": "Prince William County",
    "state": "VA",
    "zip": "20141",
    "latitude": 38.711,
    "longitude": -77.4259,
    "total_voters": 677,
    "multi_state_registrations": 18,
    "recent_registrations": 14,
    "purged_voters": 18,
    "risk_score": 34
  },
  {
    "id": "pp-0012",
    "name": "Pierce Baptist Church",
    "address": "6543 Broad Cir",
    "city": "Arlington",
    "county": "Arlington County",
    "state": "VA",
    "zip": "22237",
    "latitude": 38.9156,
    "longitude": -77.1007,
    "total_voters": 1506,
    "multi_state_registrations": 71,
    "recent_registrations": 59,
    "purged_voters": 24,
    "risk_score": 61
  },
  {
    "id": "pp-0013",
    "name": "Madison Primary School",
    "address": "472 Market Ct",
    "city": "Manassas",
    "county": "Prince William County",
    "state": "VA",
    "zip": "20110",
    "latitude": 38.7795,
    "longitude": -77.4414,
    "total_voters": 1857,
    "multi_state_registrations": 46,
    "recent_registrations": 263,
    "purged_voters": 20,
    "risk_score": 48
  },
  {
    "id": "pp-0014",
    "name": "Market Recreation Center",
    "address": "3893 Fourth Ct",
    "city": "Manassas",
    "county": "Prince William County",
    "state": "VA",
    "zip": "20149",
    "latitude": 38.7592,
    "longitude": -77.5185,
    "total_voters": 1104,
    "multi_state_registrations": 17,
    "recent_registrations": 34,
    "purged_voters": 14,
    "risk_score": 24
  },
  {
    "id": "pp-0015",
    "name": "Church Fire Station",
    "address": "7363 Grant Dr",
    "city": "Fairfax",
    "county": "Fairfax County",
    "state": "VA",
    "zip": "22076",
    "latitude": 38.8251,
    "longitude": -77.272,
    "total_voters": 2205,
    "multi_state_registrations": 70,
    "recent_registrations": 199,
    "purged_voters": 54,
    "risk_score": 71
  },
  {
    "id": "pp-0016",
    "name": "McKinley Methodist Church",
    "address": "4004 Birch Ave",
    "city": "Annandale",
    "county": "Fairfax County",
    "state": "VA",
    "zip": "22036",
    "latitude": 38.8333,
    "longitude": -77.2101,
    "total_voters": 1341,
    "multi_state_registrations": 44,
    "recent_registrations": 141,
    "purged_voters": 38,
    "risk_score": 86
  },
  {
    "id": "pp-0017",
    "name": "Grant Community Hall",
    "address": "3032 Monroe Ct",
    "city": "Herndon",
    "county": "Fairfax County",
    "state": "VA",
    "zip": "22077",
    "latitude": 38.9258,
    "longitude": -77.3509,
    "total_voters": 678,
    "multi_state_registrations": 10,
    "recent_registrations": 65,
    "purged_voters": 10,
    "risk_score": 33
  },
  {
    "id": "pp-0018",
    "name": "Tyler Community Hall",
    "address": "9255 Colonial Way",
    "city": "Manassas",
    "county": "Prince William County",
    "state": "VA",
    "zip": "20148",
    "latitude": 38.7567,
    "longitude": -77.4855,
    "total_voters": 833,
    "multi_state_registrations": 40,
    "recent_registrations": 123,
    "purged_voters": 18,
    "risk_score": 61
  },
  {
    "id": "pp-0019",
    "name": "Second Fire Station",
    "address": "1591 Jefferson St",
    "city": "Manassas",
    "county": "Prince William County",
    "state": "VA",
    "zip": "20117",
    "latitude": 38.7334,
    "longitude": -77.4412,
    "total_voters": 2034,
    "multi_state_registrations": 60,
    "recent_registrations": 202,
    "purged_voters": 16,
    "risk_score": 55
  },
  {
    "id": "pp-0020",
    "name": "River Civic Center",
    "address": "2591 Fourth Blvd",
    "city": "Annandale",
    "county": "Fairfax County",
    "state": "VA",
    "zip": "22075",
    "latitude": 38.7971,
    "longitude": -77.2163,
    "total_voters": 2452,
    "multi_state_registrations": 95,
    "recent_registrations": 66,
    "purged_voters": 38,
    "risk_score": 86
  },
  {
    "id": "pp-0021",
    "name": "Fifth American Legion Post",
    "address": "9616 Pine St",
    "city": "Manassas",
    "county": "Prince William County",
    "state": "VA",
    "zip": "20114",
    "latitude": 38.7935,
    "longitude": -77.451,
    "total_voters": 1368,
    "multi_state_registrations": 15,
    "recent_registrations": 59,
    "purged_voters": 23,
    "risk_score": 44
  },
  {
    "id": "pp-0022",
    "name": "Taft Primary School",
    "address": "537 First Rd",
    "city": "Vienna",
    "county": "Fairfax County",
    "state": "VA",
    "zip": "22055",
    "latitude": 38.8758,
    "longitude": -77.3084,
    "total_voters": 1051,
    "multi_state_registrations": 39,
    "recent_registrations": 149,
    "purged_voters": 14,
    "risk_score": 60
  },
  {
    "id": "pp-0023",
    "name": "Ford American Legion Post",
    "address": "4500 Willow Ave",
    "city": "Vienna",
    "county": "Fairfax County",
    "state": "VA",
    "zip": "22072",
    "latitude": 38.9169,
    "longitude": -77.2553,
    "total_voters": 1643,
    "multi_state_registrations": 41,
    "recent_registrations": 172,
    "purged_voters": 18,
    "risk_score": 49
  },
  {
    "id": "pp-0024",
    "name": "Fourth Public Library",
    "address": "9480 First St",
    "city": "Reston",
    "county": "Fairfax County",
    "state": "VA",
    "zip": "22057",
    "latitude": 38.985,
    "longitude": -77.3357,
    "total_voters": 1848,
    "multi_state_registrations": 72,
    "recent_registrations": 40,
    "purged_voters": 23,
    "risk_score": 49
  },
  {
    "id": "pp-0025",
    "name": "Taylor Recreation Center",
    "address": "303 Victory Cir",
    "city": "Alexandria",
    "county": "Alexandria City",
    "state": "VA",
    "zip": "22344",
    "latitude": 38.7644,
    "longitude": -76.9996,
    "total_voters": 1814,
    "multi_state_registrations": 62,
    "recent_registrations": 231,
    "purged_voters": 46,
    "risk_score": 57
  },
  {
    "id": "pp-0026",
    "name": "Ford Primary School",
    "address": "8594 Grant Rd",
    "city": "Annandale",
    "county": "Fairfax County",
    "state": "VA",
    "zip": "22030",
    "latitude": 38.8017,
    "longitude": -77.2372,
    "total_voters": 1434,
    "multi_state_registrations": 15,
    "recent_registrations": 207,
    "purged_voters": 37,
    "risk_score": 62
  },
  {
    "id": "pp-0027",
    "name": "Jackson Middle School",
    "address": "7530 Fourth Ct",
    "city": "Manassas",
    "county": "Prince William County",
    "state": "VA",
    "zip": "20139",
    "latitude": 38.7953,
    "longitude": -77.4427,
    "total_voters": 2025,
    "multi_state_registrations": 91,
    "recent_registrations": 210,
    "purged_voters": 32,
    "risk_score": 69
  },
  {
    "id": "pp-0028",
    "name": "Lincoln High School",
    "address": "5154 Second Way",
    "city": "Alexandria",
    "county": "Alexandria City",
    "state": "VA",
    "zip": "22343",
    "latitude": 38.8134,
    "longitude": -77.0683,
    "total_voters": 1422,
    "multi_state_registrations": 53,
    "recent_registrations": 169,
    "purged_voters": 14,
    "risk_score": 44
  },
  {
    "id": "pp-0029",
    "name": "River Baptist Church",
    "address": "4486 Cedar Cir",
    "city": "Vienna",
    "county": "Fairfax County",
    "state": "VA",
    "zip": "22052",
    "latitude": 38.9296,
    "longitude": -77.3009,
    "total_voters": 2059,
    "multi_state_registrations": 23,
    "recent_registrations": 229,
    "purged_voters": 13,
    "risk_score": 54
  },
  {
    "id": "pp-0030",
    "name": "Taylor Fire Station",
    "address": "4224 Monroe Ln",
    "city": "Manassas",
    "county": "Prince William County",
    "state": "VA",
    "zip": "20135",
    "latitude": 38.7304,
    "longitude": -77.4796,
    "total_voters": 2011,
    "multi_state_registrations": 37,
    "recent_registrations": 177,
    "purged_voters": 38,
    "risk_score": 52
  },
  {
    "id": "pp-0031",
    "name": "Roosevelt Recreation Center",
    "address": "1914 Washington Cir",
    "city": "Herndon",
    "county": "Fairfax County",
    "state": "VA",
    "zip": "22041",
    "latitude": 38.9585,
    "longitude": -77.3553,
    "total_voters": 2420,
    "multi_state_registrations": 52,
    "recent_registrations": 150,
    "purged_voters": 13,
    "risk_score": 53
  },
  {
    "id": "pp-0032",
    "name": "Taft Baptist Church",
    "address": "8908 Second St",
    "city": "Annandale",
    "county": "Fairfax County",
    "state": "VA",
    "zip": "22074",
    "latitude": 38.8506,
    "longitude": -77.2384,
    "total_voters": 1754,
    "multi_state_registrations": 35,
    "recent_registrations": 46,
    "purged_voters": 22,
    "risk_score": 29
  },
  {
    "id": "pp-0033",
    "name": "Nixon Elementary School",
    "address": "6542 Lake Ave",
    "city": "Manassas",
    "county": "Prince William County",
    "state": "VA",
    "zip": "20154",
    "latitude": 38.7602,
    "longitude": -77.4428,
    "total_voters": 1293,
    "multi_state_registrations": 22,
    "recent_registrations": 26,
    "purged_voters": 11,
    "risk_score": 25
  },
  {
    "id": "pp-0034",
    "name": "Grant Community Center",
    "address": "8829 Spruce Pl",
    "city": "Alexandria",
    "county": "Alexandria City",
    "state": "VA",
    "zip": "22335",
    "latitude": 38.8028,
    "longitude": -77.0057,
    "total_voters": 1183,
    "multi_state_registrations": 24,
    "recent_registrations": 104,
    "purged_voters": 33,
    "risk_score": 43
  },
  {
    "id": "pp-0035",
    "name": "Fillmore Fire Station",
    "address": "7951 Fourth Ln",
    "city": "Annandale",
    "county": "Fairfax County",
    "state": "VA",
    "zip": "22065",
    "latitude": 38.8581,
    "longitude": -77.2091,
    "total_voters": 2367,
    "multi_state_registrations": 37,
    "recent_registrations": 85,
    "purged_voters": 17,
    "risk_score": 47
  },
  {
    "id": "pp-0036",
    "name": "Buchanan Civic Center",
    "address": "5564 Ridge Blvd",
    "city": "Leesburg",
    "county": "Loudoun County",
    "state": "VA",
    "zip": "20207",
    "latitude": 39.0983,
    "longitude": -77.5494,
    "total_voters": 2331,
    "multi_state_registrations": 73,
    "recent_registrations": 147,
    "purged_voters": 27,
    "risk_score": 57
  },
  {
    "id": "pp-0037",
    "name": "Garfield Fire Station",
    "address": "6150 Fifth Rd",
    "city": "Leesburg",
    "county": "Loudoun County",
    "state": "VA",
    "zip": "20178",
    "latitude": 39.1626,
    "longitude": -77.5368,
    "total_voters": 1266,
    "multi_state_registrations": 22,
    "recent_registrations": 171,
    "purged_voters": 28,
    "risk_score": 39
  },
  {
    "id": "pp-0038",
    "name": "Taylor American Legion Post",
    "address": "5084 Market Blvd",
    "city": "Reston",
    "county": "Fairfax County",
    "state": "VA",
    "zip": "22063",
    "latitude": 38.9659,
    "longitude": -77.3398,
    "total_voters": 2064,
    "multi_state_registrations": 65,
    "recent_registrations": 44,
    "purged_voters": 14,
    "risk_score": 49
  },
  {
    "id": "pp-0039",
    "name": "Reagan VFW Post",
    "address": "2514 Church Pl",
    "city": "Fairfax",
    "county": "Fairfax County",
    "state": "VA",
    "zip": "22065",
    "latitude": 38.8648,
    "longitude": -77.3439,
    "total_voters": 2034,
    "multi_state_registrations": 29,
    "recent_registrations": 106,
    "purged_voters": 51,
    "risk_score": 49
  },
  {
    "id": "pp-0040",
    "name": "Church VFW Post",
    "address": "8946 Liberty Rd",
    "city": "Fairfax",
    "county": "Fairfax County",
    "state": "VA",
    "zip": "22041",
    "latitude": 38.8802,
    "longitude": -77.3486,
    "total_voters": 1204,
    "multi_state_registrations": 13,
    "recent_registrations": 30,
    "purged_voters": 33,
    "risk_score": 49
  },
  {
    "id": "pp-0041",
    "name": "Madison American Legion Post",
    "address": "2874 Freedom Way",
    "city": "Herndon",
    "county": "Fairfax County",
    "state": "VA",
    "zip": "22073",
    "latitude": 38.9737,
    "longitude": -77.3648,
    "total_voters": 1493,
    "multi_state_registrations": 47,
    "recent_registrations": 43,
    "purged_voters": 33,
    "risk_score": 36
  },
  {
    "id": "pp-0042",
    "name": "McKinley Methodist Church",
    "address": "2748 Pine Rd",
    "city": "Reston",
    "county": "Fairfax County",
    "state": "VA",
    "zip": "22062",
    "latitude": 38.9853,
    "longitude": -77.3571,
    "total_voters": 1958,
    "multi_state_registrations": 80,
    "recent_registrations": 121,
    "purged_voters": 13,
    "risk_score": 56
  },
  {
    "id": "pp-0043",
    "name": "Eisenhower Fire Station",
    "address": "6589 Madison Cir",
    "city": "Annandale",
    "county": "Fairfax County",
    "state": "VA",
    "zip": "22040",
    "latitude": 38.8712,
    "longitude": -77.2226,
    "total_voters": 1754,
    "multi_state_registrations": 35,
    "recent_registrations": 161,
    "purged_voters": 24,
    "risk_score": 40
  },
  {
    "id": "pp-0044",
    "name": "Ford Middle School",
    "address": "4421 Ridge Way",
    "city": "Vienna",
    "county": "Fairfax County",
    "state": "VA",
    "zip": "22058",
    "latitude": 38.9114,
    "longitude": -77.3127,
    "total_voters": 707,
    "multi_state_registrations": 16,
    "recent_registrations": 78,
    "purged_voters": 10,
    "risk_score": 34
  },
  {
    "id": "pp-0045",
    "name": "Washington Methodist Church",
    "address": "7750 Park St",
    "city": "Falls Church",
    "county": "Fairfax County",
    "state": "VA",
    "zip": "22076",
    "latitude": 38.9099,
    "longitude": -77.213,
    "total_voters": 825,
    "multi_state_registrations": 23,
    "recent_registrations": 97,
    "purged_voters": 7,
    "risk_score": 66
  },
  {
    "id": "pp-0046",
    "name": "Main Presbyterian Church",
    "address": "1404 Third St",
    "city": "Annandale",
    "county": "Fairfax County",
    "state": "VA",
    "zip": "22038",
    "latitude": 38.816,
    "longitude": -77.219,
    "total_voters": 1865,
    "multi_state_registrations": 21,
    "recent_registrations": 219,
    "purged_voters": 54,
    "risk_score": 60
  },
  {
    "id": "pp-0047",
    "name": "Van Buren Township Hall",
    "address": "2055 Fourth St",
    "city": "Arlington",
    "county": "Arlington County",
    "state": "VA",
    "zip": "22218",
    "latitude": 38.8569,
    "longitude": -77.0832,
    "total_voters": 1463,
    "multi_state_registrations": 20,
    "recent_registrations": 82,
    "purged_voters": 24,
    "risk_score": 26
  },
  {
    "id": "pp-0048",
    "name": "Carter Public Library",
    "address": "344 Washington Ave",
    "city": "Leesburg",
    "county": "Loudoun County",
    "state": "VA",
    "zip": "20175",
    "latitude": 39.1223,
    "longitude": -77.6009,
    "total_voters": 2417,
    "multi_state_registrations": 64,
    "recent_registrations": 81,
    "purged_voters": 16,
    "risk_score": 56
  },
  {
    "id": "pp-0049",
    "name": "Willow American Legion Post",
    "address": "1806 Colonial Blvd",
    "city": "Reston",
    "county": "Fairfax County",
    "state": "VA",
    "zip": "22060",
    "latitude": 39.0111,
    "longitude": -77.3823,
    "total_voters": 2041,
    "multi_state_registrations": 49,
    "recent_registrations": 241,
    "purged_voters": 42,
    "risk_score": 69
  },
  {
    "id": "pp-0050",
    "name": "Ford High School",
    "address": "3433 Valley Blvd",
    "city": "Herndon",
    "county": "Fairfax County",
    "state": "VA",
    "zip": "22077",
    "latitude": 38.991,
    "longitude": -77.3629,
    "total_voters": 1162,
    "multi_state_registrations": 16,
    "recent_registrations": 64,
    "purged_voters": 12,
    "risk_score": 26
  },
  {
    "id": "pp-0051",
    "name": "Lincoln Senior Center",
    "address": "3308 Maple Pl",
    "city": "Herndon",
    "county": "Fairfax County",
    "state": "VA",
    "zip": "22036",
    "latitude": 39.0003,
    "longitude": -77.3953,
    "total_voters": 1633,
    "multi_state_registrations": 38,
    "recent_registrations": 122,
    "purged_voters": 17,
    "risk_score": 50
  },
  {
    "id": "pp-0052",
    "name": "Jackson Public Library",
    "address": "4206 Madison Blvd",
    "city": "Reston",
    "county": "Fairfax County",
    "state": "VA",
    "zip": "22038",
    "latitude": 38.9905,
    "longitude": -77.3433,
    "total_voters": 1160,
    "multi_state_registrations": 28,
    "recent_registrations": 154,
    "purged_voters": 29,
    "risk_score": 50
  },
  {
    "id": "pp-0053",
    "name": "Harding Senior Center",
    "address": "5426 Liberty Ct",
    "city": "Alexandria",
    "county": "Alexandria City",
    "state": "VA",
    "zip": "22334",
    "latitude": 38.8497,
    "longitude": -77.0029,
    "total_voters": 808,
    "multi_state_registrations": 28,
    "recent_registrations": 58,
    "purged_voters": 4,
    "risk_score": 40
  },
  {
    "id": "pp-0054",
    "name": "Pierce Fire Station",
    "address": "1920 Washington Ave",
    "city": "Arlington",
    "county": "Arlington County",
    "state": "VA",
    "zip": "22213",
    "latitude": 38.9093,
    "longitude": -77.127,
    "total_voters": 2471,
    "multi_state_registrations": 47,
    "recent_registrations": 267,
    "purged_voters": 17,
    "risk_score": 49
  },
  {
    "id": "pp-0055",
    "name": "Mountain Baptist Church",
    "address": "290 Park Dr",
    "city": "Vienna",
    "county": "Fairfax County",
    "state": "VA",
    "zip": "22069",
    "latitude": 38.8571,
    "longitude": -77.2293,
    "total_voters": 2536,
    "multi_state_registrations": 85,
    "recent_registrations": 303,
    "purged_voters": 46,
    "risk_score": 73
  },
  {
    "id": "pp-0056",
    "name": "Washington American Legion Post",
    "address": "9276 Elm Rd",
    "city": "Leesburg",
    "county": "Loudoun County",
    "state": "VA",
    "zip": "20209",
    "latitude": 39.0829,
    "longitude": -77.5622,
    "total_voters": 2022,
    "multi_state_registrations": 73,
    "recent_registrations": 257,
    "purged_voters": 50,
    "risk_score": 94
  },
  {
    "id": "pp-0057",
    "name": "Lincoln Middle School",
    "address": "154 Grant Cir",
    "city": "Manassas",
    "county": "Prince William County",
    "state": "VA",
    "zip": "20124",
    "latitude": 38.7386,
    "longitude": -77.5017,
    "total_voters": 2484,
    "multi_state_registrations": 100,
    "recent_registrations": 73,
    "purged_voters": 48,
    "risk_score": 59
  },
  {
    "id": "pp-0058",
    "name": "Pine Baptist Church",
    "address": "5372 Birch Ct",
    "city": "Vienna",
    "county": "Fairfax County",
    "state": "VA",
    "zip": "22037",
    "latitude": 38.8703,
    "longitude": -77.2235,
    "total_voters": 1870,
    "multi_state_registrations": 69,
    "recent_registrations": 123,
    "purged_voters": 19,
    "risk_score": 77
  },
  {
    "id": "pp-0059",
    "name": "School Community Hall",
    "address": "5862 Broad Pl",
    "city": "Annandale",
    "county": "Fairfax County",
    "state": "VA",
    "zip": "22068",
    "latitude": 38.8437,
    "longitude": -77.2113,
    "total_voters": 904,
    "multi_state_registrations": 31,
    "recent_registrations": 120,
    "purged_voters": 14,
    "risk_score": 44
  },
  {
    "id": "pp-0060",
    "name": "Lincoln Methodist Church",
    "address": "4785 Mountain Cir",
    "city": "Annandale",
    "county": "Fairfax County",
    "state": "VA",
    "zip": "22069",
    "latitude": 38.8604,
    "longitude": -77.2272,
    "total_voters": 2617,
    "multi_state_registrations": 80,
    "recent_registrations": 392,
    "purged_voters": 14,
    "risk_score": 70
  },
  {
    "id": "pp-0061",
    "name": "Liberty Community Center",
    "address": "3841 Ridge Rd",
    "city": "Reston",
    "county": "Fairfax County",
    "state": "VA",
    "zip": "22070",
    "latitude": 38.9926,
    "longitude": -77.3421,
    "total_voters": 1462,
    "multi_state_registrations": 20,
    "recent_registrations": 54,
    "purged_voters": 19,
    "risk_score": 20
  },
  {
    "id": "pp-0062",
    "name": "Pierce Public Library",
    "address": "339 Market Blvd",
    "city": "Vienna",
    "county": "Fairfax County",
    "state": "VA",
    "zip": "22044",
    "latitude": 38.8569,
    "longitude": -77.2459,
    "total_voters": 826,
    "multi_state_registrations": 30,
    "recent_registrations": 120,
    "purged_voters": 22,
    "risk_score": 68
  },
  {
    "id": "pp-0063",
    "name": "Carter Middle School",
    "address": "4555 Monroe Dr",
    "city": "Vienna",
    "county": "Fairfax County",
    "state": "VA",
    "zip": "22058",
    "latitude": 38.8845,
    "longitude": -77.2446,
    "total_voters": 1049,
    "multi_state_registrations": 33,
    "recent_registrations": 135,
    "purged_voters": 23,
    "risk_score": 50
  },
  {
    "id": "pp-0064",
    "name": "Ford Public Library",
    "address": "837 School Ln",
    "city": "Alexandria",
    "county": "Alexandria City",
    "state": "VA",
    "zip": "22336",
    "latitude": 38.8366,
    "longitude": -77.0899,
    "total_voters": 2493,
    "multi_state_registrations": 58,
    "recent_registrations": 50,
    "purged_voters": 26,
    "risk_score": 44
  },
  {
    "id": "pp-0065",
    "name": "Park Recreation Center",
    "address": "6795 Liberty Cir",
    "city": "Falls Church",
    "county": "Fairfax County",
    "state": "VA",
    "zip": "22055",
    "latitude": 38.9297,
    "longitude": -77.1367,
    "total_voters": 1762,
    "multi_state_registrations": 32,
    "recent_registrations": 177,
    "purged_voters": 40,
    "risk_score": 54
  },
  {
    "id": "pp-0066",
    "name": "Adams Senior Center",
    "address": "5389 Freedom Dr",
    "city": "Manassas",
    "county": "Prince William County",
    "state": "VA",
    "zip": "20121",
    "latitude": 38.7971,
    "longitude": -77.4687,
    "total_voters": 1088,
    "multi_state_registrations": 51,
    "recent_registrations": 110,
    "purged_voters": 19,
    "risk_score": 49
  },
  {
    "id": "pp-0067",
    "name": "Van Buren Public Library",
    "address": "8037 Jackson Rd",
    "city": "Manassas",
    "county": "Prince William County",
    "state": "VA",
    "zip": "20153",
    "latitude": 38.7473,
    "longitude": -77.4763,
    "total_voters": 613,
    "multi_state_registrations": 21,
    "recent_registrations": 20,
    "purged_voters": 3,
    "risk_score": 26
  },
  {
    "id": "pp-0068",
    "name": "Buchanan Fire Station",
    "address": "2024 Jefferson Ln",
    "city": "Vienna",
    "county": "Fairfax County",
    "state": "VA",
    "zip": "22063",
    "latitude": 38.8614,
    "longitude": -77.3096,
    "total_voters": 760,
    "multi_state_registrations": 35,
    "recent_registrations": 35,
    "purged_voters": 11,
    "risk_score": 46
  },
  {
    "id": "pp-0069",
    "name": "Johnson Public Library",
    "address": "1623 Spruce Rd",
    "city": "Manassas",
    "county": "Prince William County",
    "state": "VA",
    "zip": "20136",
    "latitude": 38.7505,
    "longitude": -77.5013,
    "total_voters": 2214,
    "multi_state_registrations": 44,
    "recent_registrations": 153,
    "purged_voters": 31,
    "risk_score": 45
  },
  {
    "id": "pp-0070",
    "name": "Reagan Senior Center",
    "address": "5877 Liberty Dr",
    "city": "Fairfax",
    "county": "Fairfax County",
    "state": "VA",
    "zip": "22076",
    "latitude": 38.8407,
    "longitude": -77.3307,
    "total_voters": 880,
    "multi_state_registrations": 42,
    "recent_registrations": 104,
    "purged_voters": 25,
    "risk_score": 58
  },
  {
    "id": "pp-0071",
    "name": "Carter Methodist Church",
    "address": "2011 Madison Blvd",
    "city": "Reston",
    "county": "Fairfax County",
    "state": "VA",
    "zip": "22057",
    "latitude": 38.972,
    "longitude": -77.3337,
    "total_voters": 602,
    "multi_state_registrations": 18,
    "recent_registrations": 12,
    "purged_voters": 6,
    "risk_score": 20
  },
  {
    "id": "pp-0072",
    "name": "Jackson Township Hall",
    "address": "6101 Liberty Way",
    "city": "Fairfax",
    "county": "Fairfax County",
    "state": "VA",
    "zip": "22073",
    "latitude": 38.8272,
    "longitude": -77.2801,
    "total_voters": 1556,
    "multi_state_registrations": 39,
    "recent_registrations": 112,
    "purged_voters": 20,
    "risk_score": 43
  },
  {
    "id": "pp-0073",
    "name": "Van Buren Presbyterian Church",
    "address": "8796 Independence Dr",
    "city": "Fairfax",
    "county": "Fairfax County",
    "state": "VA",
    "zip": "22068",
    "latitude": 38.8543,
    "longitude": -77.2606,
    "total_voters": 435,
    "multi_state_registrations": 14,
    "recent_registrations": 20,
    "purged_voters": 8,
    "risk_score": 50
  },
  {
    "id": "pp-0074",
    "name": "Grant American Legion Post",
    "address": "8908 Church Cir",
    "city": "Annandale",
    "county": "Fairfax County",
    "state": "VA",
    "zip": "22059",
    "latitude": 38.7882,
    "longitude": -77.2435,
    "total_voters": 452,
    "multi_state_registrations": 11,
    "recent_registrations": 10,
    "purged_voters": 11,
    "risk_score": 20
  },
  {
    "id": "pp-0075",
    "name": "McKinley Elementary School",
    "address": "3465 Grant Blvd",
    "city": "Falls Church",
    "county": "Fairfax County",
    "state": "VA",
    "zip": "22076",
    "latitude": 38.9167,
    "longitude": -77.1403,
    "total_voters": 1609,
    "multi_state_registrations": 78,
    "recent_registrations": 151,
    "purged_voters": 31,
    "risk_score": 66
  },
  {
    "id": "pp-0076",
    "name": "McKinley Methodist Church",
    "address": "841 Elm Ave",
    "city": "Manassas",
    "county": "Prince William County",
    "state": "VA",
    "zip": "20152",
    "latitude": 38.7656,
    "longitude": -77.5072,
    "total_voters": 1910,
    "multi_state_registrations": 34,
    "recent_registrations": 179,
    "purged_voters": 56,
    "risk_score": 46
  },
  {
    "id": "pp-0077",
    "name": "Hayes Community Hall",
    "address": "5048 Ridge St",
    "city": "Leesburg",
    "county": "Loudoun County",
    "state": "VA",
    "zip": "20218",
    "latitude": 39.0733,
    "longitude": -77.5843,
    "total_voters": 2387,
    "multi_state_registrations": 101,
    "recent_registrations": 250,
    "purged_voters": 32,
    "risk_score": 71
  },
  {
    "id": "pp-0078",
    "name": "Mountain High School",
    "address": "6766 Jackson Rd",
    "city": "Herndon",
    "county": "Fairfax County",
    "state": "VA",
    "zip": "22030",
    "latitude": 39.0134,
    "longitude": -77.3472,
    "total_voters": 717,
    "multi_state_registrations": 20,
    "recent_registrations": 54,
    "purged_voters": 5,
    "risk_score": 31
  },
  {
    "id": "pp-0079",
    "name": "Kennedy Senior Center",
    "address": "9312 Grant Ct",
    "city": "Leesburg",
    "county": "Loudoun County",
    "state": "VA",
    "zip": "20185",
    "latitude": 39.1492,
    "longitude": -77.5585,
    "total_voters": 2064,
    "multi_state_registrations": 72,
    "recent_registrations": 179,
    "purged_voters": 30,
    "risk_score": 69
  },
  {
    "id": "pp-0080",
    "name": "Tyler American Legion Post",
    "address": "7085 School Ct",
    "city": "Arlington",
    "county": "Arlington County",
    "state": "VA",
    "zip": "22239",
    "latitude": 38.8979,
    "longitude": -77.0891,
    "total_voters": 737,
    "multi_state_registrations": 26,
    "recent_registrations": 73,
    "purged_voters": 20,
    "risk_score": 50
  },
  {
    "id": "pp-0081",
    "name": "School Methodist Church",
    "address": "4226 Market Dr",
    "city": "Manassas",
    "county": "Prince William County",
    "state": "VA",
    "zip": "20142",
    "latitude": 38.7825,
    "longitude": -77.5139,
    "total_voters": 747,
    "multi_state_registrations": 9,
    "recent_registrations": 44,
    "purged_voters": 18,
    "risk_score": 20
  },
  {
    "id": "pp-0082",
    "name": "Harrison Community Hall",
    "address": "788 First Blvd",
    "city": "Manassas",
    "county": "Prince William County",
    "state": "VA",
    "zip": "20111",
    "latitude": 38.7698,
    "longitude": -77.5014,
    "total_voters": 1653,
    "multi_state_registrations": 44,
    "recent_registrations": 161,
    "purged_voters": 14,
    "risk_score": 41
  },
  {
    "id": "pp-0083",
    "name": "Grant Senior Center",
    "address": "6240 Fifth Way",
    "city": "Herndon",
    "county": "Fairfax County",
    "state": "VA",
    "zip": "22040",
    "latitude": 38.9871,
    "longitude": -77.4102,
    "total_voters": 2208,
    "multi_state_registrations": 59,
    "recent_registrations": 259,
    "purged_voters": 43,
    "risk_score": 63
  },
  {
    "id": "pp-0084",
    "name": "Truman Public Library",
    "address": "8896 Valley Pl",
    "city": "Annandale",
    "county": "Fairfax County",
    "state": "VA",
    "zip": "22060",
    "latitude": 38.8438,
    "longitude": -77.2433,
    "total_voters": 789,
    "multi_state_registrations": 15,
    "recent_registrations": 23,
    "purged_voters": 15,
    "risk_score": 27
  },
  {
    "id": "pp-0085",
    "name": "Harding High School",
    "address": "699 Jackson Ln",
    "city": "Arlington",
    "county": "Arlington County",
    "state": "VA",
    "zip": "22216",
    "latitude": 38.8484,
    "longitude": -77.0462,
    "total_voters": 1674,
    "multi_state_registrations": 30,
    "recent_registrations": 245,
    "purged_voters": 18,
    "risk_score": 49
  },
  {
    "id": "pp-0086",
    "name": "Taylor VFW Post",
    "address": "6265 First Blvd",
    "city": "Reston",
    "county": "Fairfax County",
    "state": "VA",
    "zip": "22046",
    "latitude": 38.9843,
    "longitude": -77.3636,
    "total_voters": 1867,
    "multi_state_registrations": 66,
    "recent_registrations": 228,
    "purged_voters": 36,
    "risk_score": 64
  },
  {
    "id": "pp-0087",
    "name": "Church Community Center",
    "address": "1461 Heritage Ct",
    "city": "Fairfax",
    "county": "Fairfax County",
    "state": "VA",
    "zip": "22080",
    "latitude": 38.799,
    "longitude": -77.2804,
    "total_voters": 1657,
    "multi_state_registrations": 34,
    "recent_registrations": 240,
    "purged_voters": 22,
    "risk_score": 51
  },
  {
    "id": "pp-0088",
    "name": "Fillmore Senior Center",
    "address": "3212 Birch Dr",
    "city": "Leesburg",
    "county": "Loudoun County",
    "state": "VA",
    "zip": "20200",
    "latitude": 39.1332,
    "longitude": -77.514,
    "total_voters": 868,
    "multi_state_registrations": 19,
    "recent_registrations": 83,
    "purged_voters": 5,
    "risk_score": 35
  },
  {
    "id": "pp-0089",
    "name": "Garfield Baptist Church",
    "address": "2984 Second Cir",
    "city": "Annandale",
    "county": "Fairfax County",
    "state": "VA",
    "zip": "22064",
    "latitude": 38.8048,
    "longitude": -77.1683,
    "total_voters": 1418,
    "multi_state_registrations": 61,
    "recent_registrations": 61,
    "purged_voters": 10,
    "risk_score": 66
  },
  {
    "id": "pp-0090",
    "name": "Johnson Community Center",
    "address": "5626 Jackson Blvd",
    "city": "Vienna",
    "county": "Fairfax County",
    "state": "VA",
    "zip": "22069",
    "latitude": 38.8926,
    "longitude": -77.2893,
    "total_voters": 1693,
    "multi_state_registrations": 44,
    "recent_registrations": 212,
    "purged_voters": 33,
    "risk_score": 50
  },
  {
    "id": "pp-0091",
    "name": "Washington Fire Station",
    "address": "885 Church Cir",
    "city": "Annandale",
    "county": "Fairfax County",
    "state": "VA",
    "zip": "22032",
    "latitude": 38.8294,
    "longitude": -77.1804,
    "total_voters": 1264,
    "multi_state_registrations": 44,
    "recent_registrations": 154,
    "purged_voters": 26,
    "risk_score": 49
  },
  {
    "id": "pp-0092",
    "name": "Pierce Methodist Church",
    "address": "8045 River Ct",
    "city": "Reston",
    "county": "Fairfax County",
    "state": "VA",
    "zip": "22044",
    "latitude": 38.9315,
    "longitude": -77.3466,
    "total_voters": 948,
    "multi_state_registrations": 21,
    "recent_registrations": 100,
    "purged_voters": 6,
    "risk_score": 33
  },
  {
    "id": "pp-0093",
    "name": "Washington Primary School",
    "address": "4856 Fifth Ln",
    "city": "Annandale",
    "county": "Fairfax County",
    "state": "VA",
    "zip": "22064",
    "latitude": 38.8487,
    "longitude": -77.2201,
    "total_voters": 1536,
    "multi_state_registrations": 49,
    "recent_registrations": 39,
    "purged_voters": 8,
    "risk_score": 41
  },
  {
    "id": "pp-0094",
    "name": "Maple Recreation Center",
    "address": "5608 Washington St",
    "city": "Fairfax",
    "county": "Fairfax County",
    "state": "VA",
    "zip": "22035",
    "latitude": 38.8884,
    "longitude": -77.3228,
    "total_voters": 2277,
    "multi_state_registrations": 72,
    "recent_registrations": 175,
    "purged_voters": 37,
    "risk_score": 84
  },
  {
    "id": "pp-0095",
    "name": "Roosevelt Methodist Church",
    "address": "9857 Fourth Blvd",
    "city": "Manassas",
    "county": "Prince William County",
    "state": "VA",
    "zip": "20113",
    "latitude": 38.7969,
    "longitude": -77.4629,
    "total_voters": 948,
    "multi_state_registrations": 22,
    "recent_registrations": 106,
    "purged_voters": 19,
    "risk_score": 36
  },
  {
    "id": "pp-0096",
    "name": "Harding VFW Post",
    "address": "7394 Victory St",
    "city": "Fairfax",
    "county": "Fairfax County",
    "state": "VA",
    "zip": "22038",
    "latitude": 38.8036,
    "longitude": -77.2834,
    "total_voters": 2352,
    "multi_state_registrations": 32,
    "recent_registrations": 114,
    "purged_voters": 55,
    "risk_score": 54
  },
  {
    "id": "pp-0097",
    "name": "Coolidge Primary School",
    "address": "8893 Monroe Rd",
    "city": "Herndon",
    "county": "Fairfax County",
    "state": "VA",
    "zip": "22048",
    "latitude": 39.0123,
    "longitude": -77.3514,
    "total_voters": 1219,
    "multi_state_registrations": 45,
    "recent_registrations": 86,
    "purged_voters": 30,
    "risk_score": 47
  },
  {
    "id": "pp-0098",
    "name": "Harding VFW Post",
    "address": "9280 Lake Rd",
    "city": "Herndon",
    "county": "Fairfax County",
    "state": "VA",
    "zip": "22043",
    "latitude": 38.9283,
    "longitude": -77.3648,
    "total_voters": 1275,
    "multi_state_registrations": 31,
    "recent_registrations": 76,
    "purged_voters": 28,
    "risk_score": 74
  },
  {
    "id": "pp-0099",
    "name": "McKinley VFW Post",
    "address": "9067 Jackson St",
    "city": "Herndon",
    "county": "Fairfax County",
    "state": "VA",
    "zip": "22047",
    "latitude": 38.9304,
    "longitude": -77.3808,
    "total_voters": 2231,
    "multi_state_registrations": 94,
    "recent_registrations": 135,
    "purged_voters": 21,
    "risk_score": 94
  },
  {
    "id": "pp-0100",
    "name": "Washington Senior Center",
    "address": "3304 Victory Ct",
    "city": "Falls Church",
    "county": "Fairfax County",
    "state": "VA",
    "zip": "22060",
    "latitude": 38.9202,
    "longitude": -77.1251,
    "total_voters": 906,
    "multi_state_registrations": 29,
    "recent_registrations": 37,
    "purged_voters": 25,
    "risk_score": 63
  },
  {
    "id": "pp-0101",
    "name": "Taft VFW Post",
    "address": "6099 Liberty St",
    "city": "Arlington",
    "county": "Arlington County",
    "state": "VA",
    "zip": "22247",
    "latitude": 38.8906,
    "longitude": -77.0847,
    "total_voters": 2137,
    "multi_state_registrations": 75,
    "recent_registrations": 186,
    "purged_voters": 53,
    "risk_score": 65
  },
  {
    "id": "pp-0102",
    "name": "Oak Methodist Church",
    "address": "6594 Mountain Blvd",
    "city": "Arlington",
    "county": "Arlington County",
    "state": "VA",
    "zip": "22208",
    "latitude": 38.8533,
    "longitude": -77.0937,
    "total_voters": 2249,
    "multi_state_registrations": 47,
    "recent_registrations": 98,
    "purged_voters": 43,
    "risk_score": 56
  },
  {
    "id": "pp-0103",
    "name": "Jackson Senior Center",
    "address": "862 Liberty Ave",
    "city": "Alexandria",
    "county": "Alexandria City",
    "state": "VA",
    "zip": "22362",
    "latitude": 38.8345,
    "longitude": -77.056,
    "total_voters": 1422,
    "multi_state_registrations": 46,
    "recent_registrations": 83,
    "purged_voters": 9,
    "risk_score": 43
  },
  {
    "id": "pp-0104",
    "name": "Monroe Presbyterian Church",
    "address": "7199 School Ln",
    "city": "Arlington",
    "county": "Arlington County",
    "state": "VA",
    "zip": "22224",
    "latitude": 38.924,
    "longitude": -77.0984,
    "total_voters": 2326,
    "multi_state_registrations": 37,
    "recent_registrations": 145,
    "purged_voters": 59,
    "risk_score": 48
  },
  {
    "id": "pp-0105",
    "name": "Heritage Middle School",
    "address": "1999 Broad Ct",
    "city": "Leesburg",
    "county": "Loudoun County",
    "state": "VA",
    "zip": "20178",
    "latitude": 39.0849,
    "longitude": -77.5463,
    "total_voters": 2091,
    "multi_state_registrations": 82,
    "recent_registrations": 247,
    "purged_voters": 31,
    "risk_score": 64
  },
  {
    "id": "pp-0106",
    "name": "Taft Public Library",
    "address": "8552 Main St",
    "city": "Fairfax",
    "county": "Fairfax County",
    "state": "VA",
    "zip": "22039",
    "latitude": 38.8452,
    "longitude": -77.2991,
    "total_voters": 2372,
    "multi_state_registrations": 24,
    "recent_registrations": 62,
    "purged_voters": 59,
    "risk_score": 37
  },
  {
    "id": "pp-0107",
    "name": "Ridge Primary School",
    "address": "6838 Main Blvd",
    "city": "Leesburg",
    "county": "Loudoun County",
    "state": "VA",
    "zip": "20183",
    "latitude": 39.1025,
    "longitude": -77.5858,
    "total_voters": 1615,
    "multi_state_registrations": 40,
    "recent_registrations": 71,
    "purged_voters": 10,
    "risk_score": 46
  },
  {
    "id": "pp-0108",
    "name": "Maple Community Center",
    "address": "4630 Lake Blvd",
    "city": "Vienna",
    "county": "Fairfax County",
    "state": "VA",
    "zip": "22059",
    "latitude": 38.8986,
    "longitude": -77.2883,
    "total_voters": 670,
    "multi_state_registrations": 8,
    "recent_registrations": 90,
    "purged_voters": 18,
    "risk_score": 32
  },
  {
    "id": "pp-0109",
    "name": "Fillmore Baptist Church",
    "address": "1820 Lake Pl",
    "city": "Alexandria",
    "county": "Alexandria City",
    "state": "VA",
    "zip": "22327",
    "latitude": 38.8362,
    "longitude": -77.0526,
    "total_voters": 1749,
    "multi_state_registrations": 40,
    "recent_registrations": 212,
    "purged_voters": 23,
    "risk_score": 49
  },
  {
    "id": "pp-0110",
    "name": "Independence Elementary School",
    "address": "8453 Hill Ct",
    "city": "Herndon",
    "county": "Fairfax County",
    "state": "VA",
    "zip": "22068",
    "latitude": 38.9655,
    "longitude": -77.3683,
    "total_voters": 1290,
    "multi_state_registrations": 49,
    "recent_registrations": 100,
    "purged_voters": 7,
    "risk_score": 51
  },
  {
    "id": "pp-0111",
    "name": "Washington Primary School",
    "address": "4949 Victory Ln",
    "city": "Reston",
    "county": "Fairfax County",
    "state": "VA",
    "zip": "22078",
    "latitude": 39.008,
    "longitude": -77.3624,
    "total_voters": 2304,
    "multi_state_registrations": 97,
    "recent_registrations": 283,
    "purged_voters": 44,
    "risk_score": 79
  },
  {
    "id": "pp-0112",
    "name": "Fillmore Community Center",
    "address": "7195 Lincoln Cir",
    "city": "Alexandria",
    "county": "Alexandria City",
    "state": "VA",
    "zip": "22338",
    "latitude": 38.8455,
    "longitude": -77.0952,
    "total_voters": 2017,
    "multi_state_registrations": 57,
    "recent_registrations": 224,
    "purged_voters": 45,
    "risk_score": 69
  },
  {
    "id": "pp-0113",
    "name": "Madison Recreation Center",
    "address": "4452 Colonial Ave",
    "city": "Manassas",
    "county": "Prince William County",
    "state": "VA",
    "zip": "20141",
    "latitude": 38.7285,
    "longitude": -77.4726,
    "total_voters": 1695,
    "multi_state_registrations": 46,
    "recent_registrations": 143,
    "purged_voters": 39,
    "risk_score": 49
  },
  {
    "id": "pp-0114",
    "name": "Market Primary School",
    "address": "5988 Market Ln",
    "city": "Alexandria",
    "county": "Alexandria City",
    "state": "VA",
    "zip": "22364",
    "latitude": 38.7866,
    "longitude": -77.0656,
    "total_voters": 1932,
    "multi_state_registrations": 38,
    "recent_registrations": 97,
    "purged_voters": 27,
    "risk_score": 57
  },
  {
    "id": "pp-0115",
    "name": "Liberty American Legion Post",
    "address": "6050 School Ct",
    "city": "Alexandria",
    "county": "Alexandria City",
    "state": "VA",
    "zip": "22331",
    "latitude": 38.8108,
    "longitude": -77.0934,
    "total_voters": 2643,
    "multi_state_registrations": 80,
    "recent_registrations": 320,
    "purged_voters": 13,
    "risk_score": 61
  },
  {
    "id": "pp-0116",
    "name": "Broad Middle School",
    "address": "5714 Hill Blvd",
    "city": "Reston",
    "county": "Fairfax County",
    "state": "VA",
    "zip": "22033",
    "latitude": 39.0144,
    "longitude": -77.3549,
    "total_voters": 2205,
    "multi_state_registrations": 102,
    "recent_registrations": 88,
    "purged_voters": 11,
    "risk_score": 56
  },
  {
    "id": "pp-0117",
    "name": "Kennedy Township Hall",
    "address": "1765 Fourth Ave",
    "city": "Herndon",
    "county": "Fairfax County",
    "state": "VA",
    "zip": "22068",
    "latitude": 38.9867,
    "longitude": -77.3654,
    "total_voters": 1544,
    "multi_state_registrations": 40,
    "recent_registrations": 157,
    "purged_voters": 14,
    "risk_score": 44
  },
  {
    "id": "pp-0118",
    "name": "Lincoln Township Hall",
    "address": "2905 Lincoln Pl",
    "city": "Falls Church",
    "county": "Fairfax County",
    "state": "VA",
    "zip": "22030",
    "latitude": 38.9283,
    "longitude": -77.159,
    "total_voters": 2103,
    "multi_state_registrations": 88,
    "recent_registrations": 184,
    "purged_voters": 39,
    "risk_score": 65
  },
  {
    "id": "pp-0119",
    "name": "Church Elementary School",
    "address": "5636 Hill Rd",
    "city": "Vienna",
    "county": "Fairfax County",
    "state": "VA",
    "zip": "22060",
    "latitude": 38.898,
    "longitude": -77.2554,
    "total_voters": 1323,
    "multi_state_registrations": 22,
    "recent_registrations": 94,
    "purged_voters": 24,
    "risk_score": 34
  },
  {
    "id": "pp-0120",
    "name": "Colonial Recreation Center",
    "address": "7481 Elm Rd",
    "city": "Herndon",
    "county": "Fairfax County",
    "state": "VA",
    "zip": "22033",
    "latitude": 38.966,
    "longitude": -77.3451,
    "total_voters": 2395,
    "multi_state_registrations": 92,
    "recent_registrations": 237,
    "purged_voters": 68,
    "risk_score": 72
  },
  {
    "id": "pp-0121",
    "name": "Colonial American Legion Post",
    "address": "9240 Park Pl",
    "city": "Leesburg",
    "county": "Loudoun County",
    "state": "VA",
    "zip": "20180",
    "latitude": 39.1419,
    "longitude": -77.5752,
    "total_voters": 2362,
    "multi_state_registrations": 97,
    "recent_registrations": 221,
    "purged_voters": 56,
    "risk_score": 100
  },
  {
    "id": "pp-0122",
    "name": "Monroe Recreation Center",
    "address": "8250 Fourth Way",
    "city": "Alexandria",
    "county": "Alexandria City",
    "state": "VA",
    "zip": "22325",
    "latitude": 38.823,
    "longitude": -77.0659,
    "total_voters": 1600,
    "multi_state_registrations": 78,
    "recent_registrations": 214,
    "purged_voters": 28,
    "risk_score": 62
  },
  {
    "id": "pp-0123",
    "name": "Ford VFW Post",
    "address": "6230 Church Ct",
    "city": "Falls Church",
    "county": "Fairfax County",
    "state": "VA",
    "zip": "22032",
    "latitude": 38.8373,
    "longitude": -77.1921,
    "total_voters": 843,
    "multi_state_registrations": 31,
    "recent_registrations": 77,
    "purged_voters": 24,
    "risk_score": 46
  },
  {
    "id": "pp-0124",
    "name": "Harding American Legion Post",
    "address": "3058 Market Cir",
    "city": "Fairfax",
    "county": "Fairfax County",
    "state": "VA",
    "zip": "22059",
    "latitude": 38.8472,
    "longitude": -77.3246,
    "total_voters": 724,
    "multi_state_registrations": 13,
    "recent_registrations": 66,
    "purged_voters": 7,
    "risk_score": 34
  },
  {
    "id": "pp-0125",
    "name": "Monroe Civic Center",
    "address": "8806 Jefferson Ln",
    "city": "Reston",
    "county": "Fairfax County",
    "state": "VA",
    "zip": "22061",
    "latitude": 39.0096,
    "longitude": -77.3307,
    "total_voters": 1654,
    "multi_state_registrations": 64,
    "recent_registrations": 120,
    "purged_voters": 9,
    "risk_score": 47
  },
  {
    "id": "pp-0126",
    "name": "Victory High School",
    "address": "575 Madison Ct",
    "city": "Leesburg",
    "county": "Loudoun County",
    "state": "VA",
    "zip": "20189",
    "latitude": 39.1541,
    "longitude": -77.5946,
    "total_voters": 1596,
    "multi_state_registrations": 58,
    "recent_registrations": 226,
    "purged_voters": 39,
    "risk_score": 62
  },
  {
    "id": "pp-0127",
    "name": "Washington Public Library",
    "address": "3256 Spruce Ct",
    "city": "Manassas",
    "county": "Prince William County",
    "state": "VA",
    "zip": "20115",
    "latitude": 38.7618,
    "longitude": -77.4539,
    "total_voters": 1242,
    "multi_state_registrations": 35,
    "recent_registrations": 116,
    "purged_voters": 26,
    "risk_score": 41
  },
  {
    "id": "pp-0128",
    "name": "Arthur Township Hall",
    "address": "3297 Broad Rd",
    "city": "Falls Church",
    "county": "Fairfax County",
    "state": "VA",
    "zip": "22043",
    "latitude": 38.8715,
    "longitude": -77.1629,
    "total_voters": 879,
    "multi_state_registrations": 31,
    "recent_registrations": 110,
    "purged_voters": 10,
    "risk_score": 47
  },
  {
    "id": "pp-0129",
    "name": "Roosevelt Primary School",
    "address": "6723 River Way",
    "city": "Manassas",
    "county": "Prince William County",
    "state": "VA",
    "zip": "20157",
    "latitude": 38.742,
    "longitude": -77.4357,
    "total_voters": 2015,
    "multi_state_registrations": 77,
    "recent_registrations": 66,
    "purged_voters": 32,
    "risk_score": 59
  },
  {
    "id": "pp-0130",
    "name": "Coolidge Baptist Church",
    "address": "2793 Oak Way",
    "city": "Fairfax",
    "county": "Fairfax County",
    "state": "VA",
    "zip": "22057",
    "latitude": 38.8246,
    "longitude": -77.3421,
    "total_voters": 2091,
    "multi_state_registrations": 22,
    "recent_registrations": 63,
    "purged_voters": 20,
    "risk_score": 34
  },
  {
    "id": "pp-0131",
    "name": "Hayes Civic Center",
    "address": "1636 School Rd",
    "city": "Reston",
    "county": "Fairfax County",
    "state": "VA",
    "zip": "22071",
    "latitude": 38.9453,
    "longitude": -77.3663,
    "total_voters": 437,
    "multi_state_registrations": 15,
    "recent_registrations": 9,
    "purged_voters": 3,
    "risk_score": 27
  },
  {
    "id": "pp-0132",
    "name": "Independence Methodist Church",
    "address": "8826 Broad Rd",
    "city": "Vienna",
    "county": "Fairfax County",
    "state": "VA",
    "zip": "22050",
    "latitude": 38.8958,
    "longitude": -77.2338,
    "total_voters": 1154,
    "multi_state_registrations": 41,
    "recent_registrations": 68,
    "purged_voters": 17,
    "risk_score": 38
  },
  {
    "id": "pp-0133",
    "name": "Pierce Methodist Church",
    "address": "3065 Spruce Ln",
    "city": "Manassas",
    "county": "Prince William County",
    "state": "VA",
    "zip": "20153",
    "latitude": 38.7142,
    "longitude": -77.4988,
    "total_voters": 1037,
    "multi_state_registrations": 50,
    "recent_registrations": 57,
    "purged_voters": 18,
    "risk_score": 55
  },
  {
    "id": "pp-0134",
    "name": "Independence Community Hall",
    "address": "213 Victory St",
    "city": "Annandale",
    "county": "Fairfax County",
    "state": "VA",
    "zip": "22030",
    "latitude": 38.8084,
    "longitude": -77.1838,
    "total_voters": 559,
    "multi_state_registrations": 21,
    "recent_registrations": 27,
    "purged_voters": 3,
    "risk_score": 24
  },
  {
    "id": "pp-0135",
    "name": "Arthur Civic Center",
    "address": "4160 Birch Pl",
    "city": "Arlington",
    "county": "Arlington County",
    "state": "VA",
    "zip": "22205",
    "latitude": 38.9103,
    "longitude": -77.0469,
    "total_voters": 914,
    "multi_state_registrations": 16,
    "recent_registrations": 84,
    "purged_voters": 23,
    "risk_score": 26
  },
  {
    "id": "pp-0136",
    "name": "Main Community Hall",
    "address": "3097 Victory St",
    "city": "Annandale",
    "county": "Fairfax County",
    "state": "VA",
    "zip": "22032",
    "latitude": 38.7842,
    "longitude": -77.1759,
    "total_voters": 1599,
    "multi_state_registrations": 39,
    "recent_registrations": 85,
    "purged_voters": 26,
    "risk_score": 36
  },
  {
    "id": "pp-0137",
    "name": "Reagan Baptist Church",
    "address": "3890 Independence Ct",
    "city": "Fairfax",
    "county": "Fairfax County",
    "state": "VA",
    "zip": "22073",
    "latitude": 38.8847,
    "longitude": -77.2708,
    "total_voters": 1396,
    "multi_state_registrations": 53,
    "recent_registrations": 161,
    "purged_voters": 17,
    "risk_score": 43
  },
  {
    "id": "pp-0138",
    "name": "Jackson Community Hall",
    "address": "1131 Madison Way",
    "city": "Arlington",
    "county": "Arlington County",
    "state": "VA",
    "zip": "22210",
    "latitude": 38.8529,
    "longitude": -77.0992,
    "total_voters": 855,
    "multi_state_registrations": 40,
    "recent_registrations": 117,
    "purged_voters": 18,
    "risk_score": 55
  },
  {
    "id": "pp-0139",
    "name": "Ridge Senior Center",
    "address": "3478 Elm Blvd",
    "city": "Arlington",
    "county": "Arlington County",
    "state": "VA",
    "zip": "22221",
    "latitude": 38.9089,
    "longitude": -77.041,
    "total_voters": 1947,
    "multi_state_registrations": 75,
    "recent_registrations": 231,
    "purged_voters": 30,
    "risk_score": 56
  },
  {
    "id": "pp-0140",
    "name": "Third Township Hall",
    "address": "9899 Jefferson Blvd",
    "city": "Herndon",
    "county": "Fairfax County",
    "state": "VA",
    "zip": "22034",
    "latitude": 38.9333,
    "longitude": -77.3743,
    "total_voters": 2398,
    "multi_state_registrations": 50,
    "recent_registrations": 88,
    "purged_voters": 70,
    "risk_score": 49
  },
  {
    "id": "pp-0141",
    "name": "Washington Community Hall",
    "address": "8687 Church Ln",
    "city": "Vienna",
    "county": "Fairfax County",
    "state": "VA",
    "zip": "22047",
    "latitude": 38.8608,
    "longitude": -77.2267,
    "total_voters": 2258,
    "multi_state_registrations": 74,
    "recent_registrations": 122,
    "purged_voters": 32,
    "risk_score": 58
  },
  {
    "id": "pp-0142",
    "name": "Fourth Civic Center",
    "address": "8936 First St",
    "city": "Alexandria",
    "county": "Alexandria City",
    "state": "VA",
    "zip": "22325",
    "latitude": 38.8213,
    "longitude": -77.0944,
    "total_voters": 2204,
    "multi_state_registrations": 47,
    "recent_registrations": 106,
    "purged_voters": 33,
    "risk_score": 52
  },
  {
    "id": "pp-0143",
    "name": "Grant Civic Center",
    "address": "9287 River Way",
    "city": "Falls Church",
    "county": "Fairfax County",
    "state": "VA",
    "zip": "22056",
    "latitude": 38.8943,
    "longitude": -77.198,
    "total_voters": 2057,
    "multi_state_registrations": 46,
    "recent_registrations": 153,
    "purged_voters": 34,
    "risk_score": 61
  },
  {
    "id": "pp-0144",
    "name": "Fifth Presbyterian Church",
    "address": "7385 Market Ln",
    "city": "Annandale",
    "county": "Fairfax County",
    "state": "VA",
    "zip": "22068",
    "latitude": 38.8595,
    "longitude": -77.2508,
    "total_voters": 1288,
    "multi_state_registrations": 63,
    "recent_registrations": 94,
    "purged_voters": 10,
    "risk_score": 52
  },
  {
    "id": "pp-0145",
    "name": "Independence Middle School",
    "address": "6173 Valley Ave",
    "city": "Arlington",
    "county": "Arlington County",
    "state": "VA",
    "zip": "22209",
    "latitude": 38.9009,
    "longitude": -77.1293,
    "total_voters": 2668,
    "multi_state_registrations": 81,
    "recent_registrations": 146,
    "purged_voters": 48,
    "risk_score": 95
  },
  {
    "id": "pp-0146",
    "name": "Johnson VFW Post",
    "address": "661 Birch Cir",
    "city": "Annandale",
    "county": "Fairfax County",
    "state": "VA",
    "zip": "22039",
    "latitude": 38.853,
    "longitude": -77.1933,
    "total_voters": 2260,
    "multi_state_registrations": 25,
    "recent_registrations": 273,
    "purged_voters": 45,
    "risk_score": 51
  },
  {
    "id": "pp-0147",
    "name": "Lincoln Township Hall",
    "address": "2317 Maple Dr",
    "city": "Reston",
    "county": "Fairfax County",
    "state": "VA",
    "zip": "22067",
    "latitude": 38.951,
    "longitude": -77.3361,
    "total_voters": 1286,
    "multi_state_registrations": 51,
    "recent_registrations": 152,
    "purged_voters": 19,
    "risk_score": 53
  },
  {
    "id": "pp-0148",
    "name": "Fifth American Legion Post",
    "address": "5784 Cedar Way",
    "city": "Manassas",
    "county": "Prince William County",
    "state": "VA",
    "zip": "20139",
    "latitude": 38.7633,
    "longitude": -77.506,
    "total_voters": 1500,
    "multi_state_registrations": 44,
    "recent_registrations": 111,
    "purged_voters": 7,
    "risk_score": 41
  },
  {
    "id": "pp-0149",
    "name": "Truman Recreation Center",
    "address": "8025 Birch Blvd",
    "city": "Alexandria",
    "county": "Alexandria City",
    "state": "VA",
    "zip": "22355",
    "latitude": 38.8061,
    "longitude": -77.0234,
    "total_voters": 2058,
    "multi_state_registrations": 39,
    "recent_registrations": 171,
    "purged_voters": 21,
    "risk_score": 45
  },
  {
    "id": "pp-0150",
    "name": "Lake Township Hall",
    "address": "6150 Valley Blvd",
    "city": "Vienna",
    "county": "Fairfax County",
    "state": "VA",
    "zip": "22068",
    "latitude": 38.8545,
    "longitude": -77.2572,
    "total_voters": 605,
    "multi_state_registrations": 25,
    "recent_registrations": 24,
    "purged_voters": 7,
    "risk_score": 43
  },
  {
    "id": "pp-0151",
    "name": "Fillmore Senior Center",
    "address": "7894 Lincoln Rd",
    "city": "Falls Church",
    "county": "Fairfax County",
    "state": "VA",
    "zip": "22060",
    "latitude": 38.8716,
    "longitude": -77.1515,
    "total_voters": 1398,
    "multi_state_registrations": 56,
    "recent_registrations": 57,
    "purged_voters": 12,
    "risk_score": 43
  },
  {
    "id": "pp-0152",
    "name": "Van Buren Baptist Church",
    "address": "9645 Monroe Blvd",
    "city": "Reston",
    "county": "Fairfax County",
    "state": "VA",
    "zip": "22056",
    "latitude": 39.0029,
    "longitude": -77.3757,
    "total_voters": 1695,
    "multi_state_registrations": 22,
    "recent_registrations": 75,
    "purged_voters": 36,
    "risk_score": 36
  },
  {
    "id": "pp-0153",
    "name": "Jackson Community Center",
    "address": "2252 Valley Way",
    "city": "Herndon",
    "county": "Fairfax County",
    "state": "VA",
    "zip": "22032",
    "latitude": 38.935,
    "longitude": -77.4145,
    "total_voters": 1076,
    "multi_state_registrations": 31,
    "recent_registrations": 32,
    "purged_voters": 29,
    "risk_score": 44
  },
  {
    "id": "pp-0154",
    "name": "Harding Recreation Center",
    "address": "8074 Cedar Ct",
    "city": "Vienna",
    "county": "Fairfax County",
    "state": "VA",
    "zip": "22042",
    "latitude": 38.8732,
    "longitude": -77.3114,
    "total_voters": 807,
    "multi_state_registrations": 24,
    "recent_registrations": 38,
    "purged_voters": 9,
    "risk_score": 34
  },
  {
    "id": "pp-0155",
    "name": "Pierce Fire Station",
    "address": "5430 Third Ave",
    "city": "Falls Church",
    "county": "Fairfax County",
    "state": "VA",
    "zip": "22071",
    "latitude": 38.852,
    "longitude": -77.1261,
    "total_voters": 843,
    "multi_state_registrations": 16,
    "recent_registrations": 118,
    "purged_voters": 15,
    "risk_score": 58
  },
  {
    "id": "pp-0156",
    "name": "Broad Presbyterian Church",
    "address": "1836 Elm Blvd",
    "city": "Alexandria",
    "county": "Alexandria City",
    "state": "VA",
    "zip": "22343",
    "latitude": 38.8372,
    "longitude": -77.0726,
    "total_voters": 2526,
    "multi_state_registrations": 110,
    "recent_registrations": 267,
    "purged_voters": 23,
    "risk_score": 67
  },
  {
    "id": "pp-0157",
    "name": "Jefferson Community Hall",
    "address": "1587 Willow Dr",
    "city": "Fairfax",
    "county": "Fairfax County",
    "state": "VA",
    "zip": "22047",
    "latitude": 38.8605,
    "longitude": -77.2926,
    "total_voters": 2098,
    "multi_state_registrations": 93,
    "recent_registrations": 143,
    "purged_voters": 62,
    "risk_score": 72
  },
  {
    "id": "pp-0158",
    "name": "Coolidge Public Library",
    "address": "7753 Park Cir",
    "city": "Manassas",
    "county": "Prince William County",
    "state": "VA",
    "zip": "20129",
    "latitude": 38.7839,
    "longitude": -77.5229,
    "total_voters": 809,
    "multi_state_registrations": 11,
    "recent_registrations": 74,
    "purged_voters": 11,
    "risk_score": 29
  },
  {
    "id": "pp-0159",
    "name": "Nixon VFW Post",
    "address": "1708 Second Ave",
    "city": "Fairfax",
    "county": "Fairfax County",
    "state": "VA",
    "zip": "22046",
    "latitude": 38.8081,
    "longitude": -77.3019,
    "total_voters": 2345,
    "multi_state_registrations": 74,
    "recent_registrations": 310,
    "purged_voters": 58,
    "risk_score": 100
  },
  {
    "id": "pp-0160",
    "name": "Monroe Middle School",
    "address": "942 Market Ct",
    "city": "Alexandria",
    "county": "Alexandria City",
    "state": "VA",
    "zip": "22351",
    "latitude": 38.8324,
    "longitude": -77.0585,
    "total_voters": 1299,
    "multi_state_registrations": 58,
    "recent_registrations": 61,
    "purged_voters": 37,
    "risk_score": 46
  },
  {
    "id": "pp-0161",
    "name": "Ridge Community Hall",
    "address": "5402 Jackson Rd",
    "city": "Annandale",
    "county": "Fairfax County",
    "state": "VA",
    "zip": "22062",
    "latitude": 38.8275,
    "longitude": -77.1738,
    "total_voters": 2397,
    "multi_state_registrations": 52,
    "recent_registrations": 265,
    "purged_voters": 14,
    "risk_score": 48
  },
  {
    "id": "pp-0162",
    "name": "Oak Elementary School",
    "address": "643 Jefferson Cir",
    "city": "Falls Church",
    "county": "Fairfax County",
    "state": "VA",
    "zip": "22080",
    "latitude": 38.8377,
    "longitude": -77.1274,
    "total_voters": 1086,
    "multi_state_registrations": 35,
    "recent_registrations": 154,
    "purged_voters": 26,
    "risk_score": 53
  },
  {
    "id": "pp-0163",
    "name": "Polk Community Hall",
    "address": "899 Jackson Ct",
    "city": "Fairfax",
    "county": "Fairfax County",
    "state": "VA",
    "zip": "22065",
    "latitude": 38.7966,
    "longitude": -77.329,
    "total_voters": 1701,
    "multi_state_registrations": 34,
    "recent_registrations": 187,
    "purged_voters": 11,
    "risk_score": 75
  },
  {
    "id": "pp-0164",
    "name": "Eisenhower Public Library",
    "address": "9899 Market Rd",
    "city": "Vienna",
    "county": "Fairfax County",
    "state": "VA",
    "zip": "22065",
    "latitude": 38.9177,
    "longitude": -77.2614,
    "total_voters": 1423,
    "multi_state_registrations": 19,
    "recent_registrations": 193,
    "purged_voters": 29,
    "risk_score": 39
  },
  {
    "id": "pp-0165",
    "name": "Main High School",
    "address": "4180 Grant Dr",
    "city": "Manassas",
    "county": "Prince William County",
    "state": "VA",
    "zip": "20132",
    "latitude": 38.8006,
    "longitude": -77.4294,
    "total_voters": 1762,
    "multi_state_registrations": 87,
    "recent_registrations": 121,
    "purged_voters": 39,
    "risk_score": 70
  },
  {
    "id": "pp-0166",
    "name": "McKinley High School",
    "address": "6728 Maple Ct",
    "city": "Herndon",
    "county": "Fairfax County",
    "state": "VA",
    "zip": "22078",
    "latitude": 38.9715,
    "longitude": -77.4326,
    "total_voters": 1863,
    "multi_state_registrations": 35,
    "recent_registrations": 116,
    "purged_voters": 38,
    "risk_score": 46
  },
  {
    "id": "pp-0167",
    "name": "Main American Legion Post",
    "address": "2892 First Pl",
    "city": "Leesburg",
    "county": "Loudoun County",
    "state": "VA",
    "zip": "20184",
    "latitude": 39.1264,
    "longitude": -77.5975,
    "total_voters": 2114,
    "multi_state_registrations": 34,
    "recent_registrations": 239,
    "purged_voters": 28,
    "risk_score": 52
  },
  {
    "id": "pp-0168",
    "name": "Carter Public Library",
    "address": "9322 Pine St",
    "city": "Leesburg",
    "county": "Loudoun County",
    "state": "VA",
    "zip": "20192",
    "latitude": 39.1479,
    "longitude": -77.5901,
    "total_voters": 1649,
    "multi_state_registrations": 53,
    "recent_registrations": 61,
    "purged_voters": 39,
    "risk_score": 54
  },
  {
    "id": "pp-0169",
    "name": "Harrison Township Hall",
    "address": "6141 Jackson Way",
    "city": "Herndon",
    "county": "Fairfax County",
    "state": "VA",
    "zip": "22047",
    "latitude": 39.0056,
    "longitude": -77.3841,
    "total_voters": 2337,
    "multi_state_registrations": 55,
    "recent_registrations": 170,
    "purged_voters": 13,
    "risk_score": 57
  },
  {
    "id": "pp-0170",
    "name": "Madison Primary School",
    "address": "325 Church Pl",
    "city": "Reston",
    "county": "Fairfax County",
    "state": "VA",
    "zip": "22030",
    "latitude": 38.9408,
    "longitude": -77.3671,
    "total_voters": 678,
    "multi_state_registrations": 10,
    "recent_registrations": 62,
    "purged_voters": 4,
    "risk_score": 26
  },
  {
    "id": "pp-0171",
    "name": "Polk Public Library",
    "address": "8473 Second Ave",
    "city": "Fairfax",
    "county": "Fairfax County",
    "state": "VA",
    "zip": "22074",
    "latitude": 38.8864,
    "longitude": -77.3032,
    "total_voters": 2371,
    "multi_state_registrations": 69,
    "recent_registrations": 307,
    "purged_voters": 50,
    "risk_score": 71
  },
  {
    "id": "pp-0172",
    "name": "Hoover Baptist Church",
    "address": "5276 Ridge Ave",
    "city": "Herndon",
    "county": "Fairfax County",
    "state": "VA",
    "zip": "22049",
    "latitude": 38.9917,
    "longitude": -77.3909,
    "total_voters": 1201,
    "multi_state_registrations": 31,
    "recent_registrations": 35,
    "purged_voters": 12,
    "risk_score": 34
  },
  {
    "id": "pp-0173",
    "name": "Garfield Public Library",
    "address": "7032 Grant Blvd",
    "city": "Leesburg",
    "county": "Loudoun County",
    "state": "VA",
    "zip": "20176",
    "latitude": 39.1589,
    "longitude": -77.5589,
    "total_voters": 1275,
    "multi_state_registrations": 63,
    "recent_registrations": 102,
    "purged_voters": 37,
    "risk_score": 60
  },
  {
    "id": "pp-0174",
    "name": "Truman Community Hall",
    "address": "6223 Market Ave",
    "city": "Herndon",
    "county": "Fairfax County",
    "state": "VA",
    "zip": "22060",
    "latitude": 38.9448,
    "longitude": -77.3896,
    "total_voters": 1560,
    "multi_state_registrations": 75,
    "recent_registrations": 167,
    "purged_voters": 24,
    "risk_score": 57
  },
  {
    "id": "pp-0175",
    "name": "Lincoln Public Library",
    "address": "9537 Main Blvd",
    "city": "Manassas",
    "county": "Prince William County",
    "state": "VA",
    "zip": "20156",
    "latitude": 38.7664,
    "longitude": -77.4804,
    "total_voters": 1263,
    "multi_state_registrations": 49,
    "recent_registrations": 129,
    "purged_voters": 30,
    "risk_score": 52
  },
  {
    "id": "pp-0176",
    "name": "Harding Elementary School",
    "address": "6529 Third Ave",
    "city": "Vienna",
    "county": "Fairfax County",
    "state": "VA",
    "zip": "22060",
    "latitude": 38.8917,
    "longitude": -77.2621,
    "total_voters": 1498,
    "multi_state_registrations": 74,
    "recent_registrations": 95,
    "purged_voters": 10,
    "risk_score": 43
  },
  {
    "id": "pp-0177",
    "name": "Eisenhower Public Library",
    "address": "2655 Independence Ln",
    "city": "Alexandria",
    "county": "Alexandria City",
    "state": "VA",
    "zip": "22354",
    "latitude": 38.8461,
    "longitude": -77.0189,
    "total_voters": 2255,
    "multi_state_registrations": 73,
    "recent_registrations": 68,
    "purged_voters": 15,
    "risk_score": 48
  },
  {
    "id": "pp-0178",
    "name": "Eisenhower Baptist Church",
    "address": "3104 Grant Dr",
    "city": "Herndon",
    "county": "Fairfax County",
    "state": "VA",
    "zip": "22058",
    "latitude": 38.9912,
    "longitude": -77.4297,
    "total_voters": 1525,
    "multi_state_registrations": 24,
    "recent_registrations": 106,
    "purged_voters": 15,
    "risk_score": 32
  },
  {
    "id": "pp-0179",
    "name": "Jackson Baptist Church",
    "address": "8751 Liberty Ln",
    "city": "Leesburg",
    "county": "Loudoun County",
    "state": "VA",
    "zip": "20207",
    "latitude": 39.0967,
    "longitude": -77.5612,
    "total_voters": 743,
    "multi_state_registrations": 16,
    "recent_registrations": 95,
    "purged_voters": 12,
    "risk_score": 41
  },
  {
    "id": "pp-0180",
    "name": "Jefferson Public Library",
    "address": "3801 Washington Pl",
    "city": "Vienna",
    "county": "Fairfax County",
    "state": "VA",
    "zip": "22035",
    "latitude": 38.8911,
    "longitude": -77.3102,
    "total_voters": 951,
    "multi_state_registrations": 14,
    "recent_registrations": 70,
    "purged_voters": 7,
    "risk_score": 28
  },
  {
    "id": "pp-0181",
    "name": "Kennedy Primary School",
    "address": "2148 Park Ave",
    "city": "Herndon",
    "county": "Fairfax County",
    "state": "VA",
    "zip": "22059",
    "latitude": 38.957,
    "longitude": -77.4092,
    "total_voters": 1697,
    "multi_state_registrations": 57,
    "recent_registrations": 71,
    "purged_voters": 49,
    "risk_score": 78
  },
  {
    "id": "pp-0182",
    "name": "Spruce Township Hall",
    "address": "1575 School Ct",
    "city": "Manassas",
    "county": "Prince William County",
    "state": "VA",
    "zip": "20158",
    "latitude": 38.7278,
    "longitude": -77.4694,
    "total_voters": 803,
    "multi_state_registrations": 33,
    "recent_registrations": 34,
    "purged_voters": 15,
    "risk_score": 43
  },
  {
    "id": "pp-0183",
    "name": "Reagan American Legion Post",
    "address": "7680 Market Blvd",
    "city": "Leesburg",
    "county": "Loudoun County",
    "state": "VA",
    "zip": "20176",
    "latitude": 39.1139,
    "longitude": -77.5411,
    "total_voters": 2169,
    "multi_state_registrations": 51,
    "recent_registrations": 147,
    "purged_voters": 12,
    "risk_score": 52
  },
  {
    "id": "pp-0184",
    "name": "Van Buren Methodist Church",
    "address": "2963 Elm Way",
    "city": "Fairfax",
    "county": "Fairfax County",
    "state": "VA",
    "zip": "22032",
    "latitude": 38.8937,
    "longitude": -77.341,
    "total_voters": 1823,
    "multi_state_registrations": 40,
    "recent_registrations": 229,
    "purged_voters": 19,
    "risk_score": 54
  },
  {
    "id": "pp-0185",
    "name": "Fifth Recreation Center",
    "address": "5781 Second Ct",
    "city": "Vienna",
    "county": "Fairfax County",
    "state": "VA",
    "zip": "22064",
    "latitude": 38.9071,
    "longitude": -77.2835,
    "total_voters": 1116,
    "multi_state_registrations": 21,
    "recent_registrations": 85,
    "purged_voters": 24,
    "risk_score": 34
  },
  {
    "id": "pp-0186",
    "name": "Fourth Public Library",
    "address": "4207 Washington Dr",
    "city": "Vienna",
    "county": "Fairfax County",
    "state": "VA",
    "zip": "22048",
    "latitude": 38.8574,
    "longitude": -77.2504,
    "total_voters": 1274,
    "multi_state_registrations": 59,
    "recent_registrations": 86,
    "purged_voters": 19,
    "risk_score": 53
  },
  {
    "id": "pp-0187",
    "name": "Birch Community Hall",
    "address": "6115 Independence Ave",
    "city": "Manassas",
    "county": "Prince William County",
    "state": "VA",
    "zip": "20131",
    "latitude": 38.7097,
    "longitude": -77.4455,
    "total_voters": 598,
    "multi_state_registrations": 27,
    "recent_registrations": 79,
    "purged_voters": 11,
    "risk_score": 67
  },
  {
    "id": "pp-0188",
    "name": "Lincoln Public Library",
    "address": "2389 School Way",
    "city": "Reston",
    "county": "Fairfax County",
    "state": "VA",
    "zip": "22077",
    "latitude": 38.9371,
    "longitude": -77.3448,
    "total_voters": 708,
    "multi_state_registrations": 14,
    "recent_registrations": 16,
    "purged_voters": 18,
    "risk_score": 31
  },
  {
    "id": "pp-0189",
    "name": "Spruce Methodist Church",
    "address": "2030 Ridge Blvd",
    "city": "Annandale",
    "county": "Fairfax County",
    "state": "VA",
    "zip": "22079",
    "latitude": 38.8167,
    "longitude": -77.2579,
    "total_voters": 1491,
    "multi_state_registrations": 35,
    "recent_registrations": 41,
    "purged_voters": 41,
    "risk_score": 40
  },
  {
    "id": "pp-0190",
    "name": "Maple Civic Center",
    "address": "3014 Oak Ave",
    "city": "Falls Church",
    "county": "Fairfax County",
    "state": "VA",
    "zip": "22050",
    "latitude": 38.8706,
    "longitude": -77.1352,
    "total_voters": 2365,
    "multi_state_registrations": 56,
    "recent_registrations": 79,
    "purged_voters": 20,
    "risk_score": 42
  },
  {
    "id": "pp-0191",
    "name": "Kennedy Presbyterian Church",
    "address": "2772 Church Ln",
    "city": "Annandale",
    "county": "Fairfax County",
    "state": "VA",
    "zip": "22057",
    "latitude": 38.8257,
    "longitude": -77.1946,
    "total_voters": 1260,
    "multi_state_registrations": 24,
    "recent_registrations": 85,
    "purged_voters": 28,
    "risk_score": 42
  },
  {
    "id": "pp-0192",
    "name": "Johnson Middle School",
    "address": "2473 Jackson Dr",
    "city": "Alexandria",
    "county": "Alexandria City",
    "state": "VA",
    "zip": "22323",
    "latitude": 38.7603,
    "longitude": -77.0729,
    "total_voters": 1826,
    "multi_state_registrations": 41,
    "recent_registrations": 169,
    "purged_voters": 30,
    "risk_score": 44
  },
  {
    "id": "pp-0193",
    "name": "Johnson Public Library",
    "address": "7224 Willow Cir",
    "city": "Leesburg",
    "county": "Loudoun County",
    "state": "VA",
    "zip": "20195",
    "latitude": 39.1335,
    "longitude": -77.5259,
    "total_voters": 858,
    "multi_state_registrations": 11,
    "recent_registrations": 39,
    "purged_voters": 10,
    "risk_score": 20
  },
  {
    "id": "pp-0194",
    "name": "Washington American Legion Post",
    "address": "5143 Valley Way",
    "city": "Alexandria",
    "county": "Alexandria City",
    "state": "VA",
    "zip": "22330",
    "latitude": 38.8465,
    "longitude": -77.0548,
    "total_voters": 2238,
    "multi_state_registrations": 34,
    "recent_registrations": 242,
    "purged_voters": 18,
    "risk_score": 44
  },
  {
    "id": "pp-0195",
    "name": "Hoover American Legion Post",
    "address": "5038 Birch Pl",
    "city": "Annandale",
    "county": "Fairfax County",
    "state": "VA",
    "zip": "22051",
    "latitude": 38.8028,
    "longitude": -77.1765,
    "total_voters": 1808,
    "multi_state_registrations": 33,
    "recent_registrations": 39,
    "purged_voters": 32,
    "risk_score": 32
  },
  {
    "id": "pp-0196",
    "name": "Truman American Legion Post",
    "address": "2655 Washington Ave",
    "city": "Reston",
    "county": "Fairfax County",
    "state": "VA",
    "zip": "22061",
    "latitude": 39.0012,
    "longitude": -77.3725,
    "total_voters": 1223,
    "multi_state_registrations": 46,
    "recent_registrations": 91,
    "purged_voters": 28,
    "risk_score": 43
  },
  {
    "id": "pp-0197",
    "name": "Cleveland Baptist Church",
    "address": "487 Cedar Cir",
    "city": "Falls Church",
    "county": "Fairfax County",
    "state": "VA",
    "zip": "22045",
    "latitude": 38.8627,
    "longitude": -77.1877,
    "total_voters": 986,
    "multi_state_registrations": 33,
    "recent_registrations": 92,
    "purged_voters": 5,
    "risk_score": 29
  },
  {
    "id": "pp-0198",
    "name": "Liberty Presbyterian Church",
    "address": "8532 Grant Ct",
    "city": "Annandale",
    "county": "Fairfax County",
    "state": "VA",
    "zip": "22069",
    "latitude": 38.8339,
    "longitude": -77.1936,
    "total_voters": 944,
    "multi_state_registrations": 42,
    "recent_registrations": 39,
    "purged_voters": 13,
    "risk_score": 36
  },
  {
    "id": "pp-0199",
    "name": "Cedar Community Center",
    "address": "4268 Second Dr",
    "city": "Alexandria",
    "county": "Alexandria City",
    "state": "VA",
    "zip": "22343",
    "latitude": 38.7786,
    "longitude": -77.0723,
    "total_voters": 1621,
    "multi_state_registrations": 59,
    "recent_registrations": 83,
    "purged_voters": 31,
    "risk_score": 49
  },
  {
    "id": "pp-0200",
    "name": "Hayes Community Center",
    "address": "3465 Cedar St",
    "city": "Alexandria",
    "county": "Alexandria City",
    "state": "VA",
    "zip": "22337",
    "latitude": 38.8215,
    "longitude": -77.0129,
    "total_voters": 2540,
    "multi_state_registrations": 105,
    "recent_registrations": 79,
    "purged_voters": 28,
    "risk_score": 56
  },
  {
    "id": "pp-0201",
    "name": "Freedom Community Hall",
    "address": "9114 Cedar Dr",
    "city": "Vienna",
    "county": "Fairfax County",
    "state": "VA",
    "zip": "22058",
    "latitude": 38.9326,
    "longitude": -77.2204,
    "total_voters": 2060,
    "multi_state_registrations": 56,
    "recent_registrations": 74,
    "purged_voters": 40,
    "risk_score": 60
  },
  {
    "id": "pp-0202",
    "name": "Garfield Civic Center",
    "address": "5225 Jefferson Blvd",
    "city": "Falls Church",
    "county": "Fairfax County",
    "state": "VA",
    "zip": "22060",
    "latitude": 38.9275,
    "longitude": -77.1624,
    "total_voters": 2054,
    "multi_state_registrations": 98,
    "recent_registrations": 101,
    "purged_voters": 30,
    "risk_score": 65
  },
  {
    "id": "pp-0203",
    "name": "Lincoln Recreation Center",
    "address": "3832 Mountain Pl",
    "city": "Falls Church",
    "county": "Fairfax County",
    "state": "VA",
    "zip": "22072",
    "latitude": 38.9218,
    "longitude": -77.1543,
    "total_voters": 829,
    "multi_state_registrations": 23,
    "recent_registrations": 45,
    "purged_voters": 12,
    "risk_score": 32
  },
  {
    "id": "pp-0204",
    "name": "Hill Elementary School",
    "address": "948 Maple Ct",
    "city": "Fairfax",
    "county": "Fairfax County",
    "state": "VA",
    "zip": "22035",
    "latitude": 38.8568,
    "longitude": -77.3533,
    "total_voters": 1426,
    "multi_state_registrations": 65,
    "recent_registrations": 209,
    "purged_voters": 40,
    "risk_score": 70
  },
  {
    "id": "pp-0205",
    "name": "Elm Community Hall",
    "address": "1837 Pine Pl",
    "city": "Leesburg",
    "county": "Loudoun County",
    "state": "VA",
    "zip": "20205",
    "latitude": 39.079,
    "longitude": -77.5698,
    "total_voters": 2364,
    "multi_state_registrations": 65,
    "recent_registrations": 190,
    "purged_voters": 29,
    "risk_score": 62
  },
  {
    "id": "pp-0206",
    "name": "McKinley Methodist Church",
    "address": "9338 Colonial St",
    "city": "Manassas",
    "county": "Prince William County",
    "state": "VA",
    "zip": "20127",
    "latitude": 38.7387,
    "longitude": -77.4851,
    "total_voters": 952,
    "multi_state_registrations": 46,
    "recent_registrations": 73,
    "purged_voters": 8,
    "risk_score": 43
  },
  {
    "id": "pp-0207",
    "name": "Main Elementary School",
    "address": "697 Church Dr",
    "city": "Fairfax",
    "county": "Fairfax County",
    "state": "VA",
    "zip": "22060",
    "latitude": 38.8203,
    "longitude": -77.2821,
    "total_voters": 1884,
    "multi_state_registrations": 78,
    "recent_registrations": 133,
    "purged_voters": 17,
    "risk_score": 52
  },
  {
    "id": "pp-0208",
    "name": "Coolidge Primary School",
    "address": "5098 River Dr",
    "city": "Leesburg",
    "county": "Loudoun County",
    "state": "VA",
    "zip": "20217",
    "latitude": 39.1099,
    "longitude": -77.607,
    "total_voters": 1314,
    "multi_state_registrations": 46,
    "recent_registrations": 86,
    "purged_voters": 38,
    "risk_score": 67
  },
  {
    "id": "pp-0209",
    "name": "Birch Middle School",
    "address": "4036 Independence St",
    "city": "Fairfax",
    "county": "Fairfax County",
    "state": "VA",
    "zip": "22050",
    "latitude": 38.8425,
    "longitude": -77.3388,
    "total_voters": 2630,
    "multi_state_registrations": 53,
    "recent_registrations": 223,
    "purged_voters": 27,
    "risk_score": 46
  },
  {
    "id": "pp-0210",
    "name": "Monroe High School",
    "address": "418 River Ct",
    "city": "Vienna",
    "county": "Fairfax County",
    "state": "VA",
    "zip": "22065",
    "latitude": 38.8692,
    "longitude": -77.2805,
    "total_voters": 459,
    "multi_state_registrations": 5,
    "recent_registrations": 50,
    "purged_voters": 5,
    "risk_score": 24
  },
  {
    "id": "pp-0211",
    "name": "Carter Elementary School",
    "address": "1999 River Cir",
    "city": "Alexandria",
    "county": "Alexandria City",
    "state": "VA",
    "zip": "22352",
    "latitude": 38.8495,
    "longitude": -77.0517,
    "total_voters": 2576,
    "multi_state_registrations": 112,
    "recent_registrations": 231,
    "purged_voters": 58,
    "risk_score": 65
  },
  {
    "id": "pp-0212",
    "name": "Valley Community Hall",
    "address": "5542 Fourth Blvd",
    "city": "Falls Church",
    "county": "Fairfax County",
    "state": "VA",
    "zip": "22048",
    "latitude": 38.907,
    "longitude": -77.1956,
    "total_voters": 1839,
    "multi_state_registrations": 91,
    "recent_registrations": 156,
    "purged_voters": 20,
    "risk_score": 57
  },
  {
    "id": "pp-0213",
    "name": "Carter Fire Station",
    "address": "1198 Jefferson Rd",
    "city": "Annandale",
    "county": "Fairfax County",
    "state": "VA",
    "zip": "22075",
    "latitude": 38.8706,
    "longitude": -77.1695,
    "total_voters": 464,
    "multi_state_registrations": 11,
    "recent_registrations": 14,
    "purged_voters": 3,
    "risk_score": 23
  },
  {
    "id": "pp-0214",
    "name": "Lake American Legion Post",
    "address": "7059 Third Pl",
    "city": "Reston",
    "county": "Fairfax County",
    "state": "VA",
    "zip": "22064",
    "latitude": 38.9209,
    "longitude": -77.374,
    "total_voters": 2432,
    "multi_state_registrations": 62,
    "recent_registrations": 259,
    "purged_voters": 12,
    "risk_score": 64
  },
  {
    "id": "pp-0215",
    "name": "Fourth Presbyterian Church",
    "address": "2082 Lake Ln",
    "city": "Leesburg",
    "county": "Loudoun County",
    "state": "VA",
    "zip": "20200",
    "latitude": 39.0797,
    "longitude": -77.5671,
    "total_voters": 1233,
    "multi_state_registrations": 53,
    "recent_registrations": 110,
    "purged_voters": 27,
    "risk_score": 80
  },
  {
    "id": "pp-0216",
    "name": "Harding Recreation Center",
    "address": "5901 Heritage Dr",
    "city": "Fairfax",
    "county": "Fairfax County",
    "state": "VA",
    "zip": "22067",
    "latitude": 38.8919,
    "longitude": -77.3269,
    "total_voters": 2054,
    "multi_state_registrations": 58,
    "recent_registrations": 154,
    "purged_voters": 35,
    "risk_score": 60
  },
  {
    "id": "pp-0217",
    "name": "Cleveland Community Hall",
    "address": "3455 Pine Blvd",
    "city": "Herndon",
    "county": "Fairfax County",
    "state": "VA",
    "zip": "22065",
    "latitude": 38.9863,
    "longitude": -77.3617,
    "total_voters": 707,
    "multi_state_registrations": 15,
    "recent_registrations": 30,
    "purged_voters": 18,
    "risk_score": 47
  },
  {
    "id": "pp-0218",
    "name": "Coolidge Methodist Church",
    "address": "140 Spruce Ave",
    "city": "Vienna",
    "county": "Fairfax County",
    "state": "VA",
    "zip": "22070",
    "latitude": 38.9323,
    "longitude": -77.2871,
    "total_voters": 1724,
    "multi_state_registrations": 30,
    "recent_registrations": 108,
    "purged_voters": 26,
    "risk_score": 45
  },
  {
    "id": "pp-0219",
    "name": "Fillmore Middle School",
    "address": "6424 Church Ln",
    "city": "Manassas",
    "county": "Prince William County",
    "state": "VA",
    "zip": "20125",
    "latitude": 38.7926,
    "longitude": -77.489,
    "total_voters": 2392,
    "multi_state_registrations": 62,
    "recent_registrations": 83,
    "purged_voters": 56,
    "risk_score": 59
  },
  {
    "id": "pp-0220",
    "name": "Harding Senior Center",
    "address": "6431 Ridge Ct",
    "city": "Falls Church",
    "county": "Fairfax County",
    "state": "VA",
    "zip": "22047",
    "latitude": 38.9229,
    "longitude": -77.1469,
    "total_voters": 1814,
    "multi_state_registrations": 26,
    "recent_registrations": 265,
    "purged_voters": 16,
    "risk_score": 45
  },
  {
    "id": "pp-0221",
    "name": "Harding Public Library",
    "address": "6599 Jackson Blvd",
    "city": "Arlington",
    "county": "Arlington County",
    "state": "VA",
    "zip": "22235",
    "latitude": 38.8792,
    "longitude": -77.0611,
    "total_voters": 1574,
    "multi_state_registrations": 20,
    "recent_registrations": 94,
    "purged_voters": 38,
    "risk_score": 37
  },
  {
    "id": "pp-0222",
    "name": "Truman American Legion Post",
    "address": "667 Broad St",
    "city": "Manassas",
    "county": "Prince William County",
    "state": "VA",
    "zip": "20115",
    "latitude": 38.7162,
    "longitude": -77.5011,
    "total_voters": 2265,
    "multi_state_registrations": 66,
    "recent_registrations": 108,
    "purged_voters": 39,
    "risk_score": 49
  },
  {
    "id": "pp-0223",
    "name": "Lincoln Civic Center",
    "address": "3447 Grant St",
    "city": "Herndon",
    "county": "Fairfax County",
    "state": "VA",
    "zip": "22072",
    "latitude": 38.9645,
    "longitude": -77.3625,
    "total_voters": 791,
    "multi_state_registrations": 25,
    "recent_registrations": 21,
    "purged_voters": 18,
    "risk_score": 24
  },
  {
    "id": "pp-0224",
    "name": "Cleveland Baptist Church",
    "address": "5019 Cedar Pl",
    "city": "Arlington",
    "county": "Arlington County",
    "state": "VA",
    "zip": "22239",
    "latitude": 38.9251,
    "longitude": -77.0796,
    "total_voters": 1691,
    "multi_state_registrations": 34,
    "recent_registrations": 69,
    "purged_voters": 44,
    "risk_score": 34
  },
  {
    "id": "pp-0225",
    "name": "Jackson American Legion Post",
    "address": "9396 Church Pl",
    "city": "Leesburg",
    "county": "Loudoun County",
    "state": "VA",
    "zip": "20194",
    "latitude": 39.1412,
    "longitude": -77.5626,
    "total_voters": 814,
    "multi_state_registrations": 35,
    "recent_registrations": 16,
    "purged_voters": 15,
    "risk_score": 33
  },
  {
    "id": "pp-0226",
    "name": "Wilson Fire Station",
    "address": "4181 Washington Ln",
    "city": "Alexandria",
    "county": "Alexandria City",
    "state": "VA",
    "zip": "22356",
    "latitude": 38.806,
    "longitude": -77.0252,
    "total_voters": 1015,
    "multi_state_registrations": 27,
    "recent_registrations": 127,
    "purged_voters": 13,
    "risk_score": 75
  },
  {
    "id": "pp-0227",
    "name": "Pierce Community Center",
    "address": "3048 Spruce St",
    "city": "Annandale",
    "county": "Fairfax County",
    "state": "VA",
    "zip": "22060",
    "latitude": 38.8264,
    "longitude": -77.2047,
    "total_voters": 2540,
    "multi_state_registrations": 101,
    "recent_registrations": 81,
    "purged_voters": 51,
    "risk_score": 68
  },
  {
    "id": "pp-0228",
    "name": "Coolidge Community Center",
    "address": "8344 Oak St",
    "city": "Arlington",
    "county": "Arlington County",
    "state": "VA",
    "zip": "22210",
    "latitude": 38.9289,
    "longitude": -77.1074,
    "total_voters": 2481,
    "multi_state_registrations": 28,
    "recent_registrations": 142,
    "purged_voters": 72,
    "risk_score": 51
  },
  {
    "id": "pp-0229",
    "name": "McKinley Recreation Center",
    "address": "5686 Heritage Blvd",
    "city": "Annandale",
    "county": "Fairfax County",
    "state": "VA",
    "zip": "22076",
    "latitude": 38.8055,
    "longitude": -77.2103,
    "total_voters": 1492,
    "multi_state_registrations": 50,
    "recent_registrations": 130,
    "purged_voters": 41,
    "risk_score": 50
  },
  {
    "id": "pp-0230",
    "name": "Harding Primary School",
    "address": "5891 Third Dr",
    "city": "Falls Church",
    "county": "Fairfax County",
    "state": "VA",
    "zip": "22077",
    "latitude": 38.8869,
    "longitude": -77.1423,
    "total_voters": 719,
    "multi_state_registrations": 17,
    "recent_registrations": 58,
    "purged_voters": 6,
    "risk_score": 38
  },
  {
    "id": "pp-0231",
    "name": "Kennedy Recreation Center",
    "address": "6603 Heritage Pl",
    "city": "Arlington",
    "county": "Arlington County",
    "state": "VA",
    "zip": "22237",
    "latitude": 38.8544,
    "longitude": -77.1014,
    "total_voters": 1307,
    "multi_state_registrations": 53,
    "recent_registrations": 76,
    "purged_voters": 36,
    "risk_score": 45
  },
  {
    "id": "pp-0232",
    "name": "Arthur Presbyterian Church",
    "address": "2508 Third Blvd",
    "city": "Vienna",
    "county": "Fairfax County",
    "state": "VA",
    "zip": "22062",
    "latitude": 38.8903,
    "longitude": -77.2723,
    "total_voters": 1692,
    "multi_state_registrations": 51,
    "recent_registrations": 224,
    "purged_voters": 25,
    "risk_score": 51
  },
  {
    "id": "pp-0233",
    "name": "Oak Fire Station",
    "address": "7971 Hill Ln",
    "city": "Annandale",
    "county": "Fairfax County",
    "state": "VA",
    "zip": "22062",
    "latitude": 38.8611,
    "longitude": -77.2458,
    "total_voters": 1867,
    "multi_state_registrations": 81,
    "recent_registrations": 84,
    "purged_voters": 36,
    "risk_score": 62
  },
  {
    "id": "pp-0234",
    "name": "Coolidge Community Hall",
    "address": "2488 Church Blvd",
    "city": "Leesburg",
    "county": "Loudoun County",
    "state": "VA",
    "zip": "20210",
    "latitude": 39.1158,
    "longitude": -77.6074,
    "total_voters": 558,
    "multi_state_registrations": 20,
    "recent_registrations": 66,
    "purged_voters": 6,
    "risk_score": 35
  },
  {
    "id": "pp-0235",
    "name": "Washington Presbyterian Church",
    "address": "7346 Willow Ave",
    "city": "Annandale",
    "county": "Fairfax County",
    "state": "VA",
    "zip": "22064",
    "latitude": 38.8034,
    "longitude": -77.2504,
    "total_voters": 1462,
    "multi_state_registrations": 35,
    "recent_registrations": 94,
    "purged_voters": 14,
    "risk_score": 30
  },
  {
    "id": "pp-0236",
    "name": "Hoover Community Center",
    "address": "9368 Willow Ave",
    "city": "Herndon",
    "county": "Fairfax County",
    "state": "VA",
    "zip": "22061",
    "latitude": 38.9913,
    "longitude": -77.3782,
    "total_voters": 2521,
    "multi_state_registrations": 38,
    "recent_registrations": 101,
    "purged_voters": 74,
    "risk_score": 43
  },
  {
    "id": "pp-0237",
    "name": "Hoover Senior Center",
    "address": "6429 Hill Cir",
    "city": "Alexandria",
    "county": "Alexandria City",
    "state": "VA",
    "zip": "22337",
    "latitude": 38.828,
    "longitude": -77.0805,
    "total_voters": 1022,
    "multi_state_registrations": 18,
    "recent_registrations": 123,
    "purged_voters": 19,
    "risk_score": 47
  },
  {
    "id": "pp-0238",
    "name": "McKinley Presbyterian Church",
    "address": "2274 Hill Rd",
    "city": "Falls Church",
    "county": "Fairfax County",
    "state": "VA",
    "zip": "22035",
    "latitude": 38.9309,
    "longitude": -77.1944,
    "total_voters": 1440,
    "multi_state_registrations": 36,
    "recent_registrations": 68,
    "purged_voters": 33,
    "risk_score": 35
  },
  {
    "id": "pp-0239",
    "name": "Hayes Elementary School",
    "address": "1426 Victory Pl",
    "city": "Fairfax",
    "county": "Fairfax County",
    "state": "VA",
    "zip": "22056",
    "latitude": 38.8956,
    "longitude": -77.3302,
    "total_voters": 764,
    "multi_state_registrations": 35,
    "recent_registrations": 44,
    "purged_voters": 4,
    "risk_score": 30
  },
  {
    "id": "pp-0240",
    "name": "Buchanan High School",
    "address": "5521 Elm Cir",
    "city": "Alexandria",
    "county": "Alexandria City",
    "state": "VA",
    "zip": "22322",
    "latitude": 38.7801,
    "longitude": -77.0911,
    "total_voters": 1378,
    "multi_state_registrations": 58,
    "recent_registrations": 141,
    "purged_voters": 15,
    "risk_score": 54
  },
  {
    "id": "pp-0241",
    "name": "Taylor VFW Post",
    "address": "9284 Grant St",
    "city": "Fairfax",
    "county": "Fairfax County",
    "state": "VA",
    "zip": "22041",
    "latitude": 38.8956,
    "longitude": -77.2661,
    "total_voters": 1700,
    "multi_state_registrations": 32,
    "recent_registrations": 225,
    "purged_voters": 47,
    "risk_score": 55
  },
  {
    "id": "pp-0242",
    "name": "Pierce Civic Center",
    "address": "5597 Cedar Pl",
    "city": "Vienna",
    "county": "Fairfax County",
    "state": "VA",
    "zip": "22066",
    "latitude": 38.8899,
    "longitude": -77.2833,
    "total_voters": 1475,
    "multi_state_registrations": 54,
    "recent_registrations": 148,
    "purged_voters": 36,
    "risk_score": 52
  },
  {
    "id": "pp-0243",
    "name": "Truman Methodist Church",
    "address": "1070 Madison Ln",
    "city": "Arlington",
    "county": "Arlington County",
    "state": "VA",
    "zip": "22219",
    "latitude": 38.8499,
    "longitude": -77.1233,
    "total_voters": 2388,
    "multi_state_registrations": 97,
    "recent_registrations": 177,
    "purged_voters": 52,
    "risk_score": 70
  },
  {
    "id": "pp-0244",
    "name": "Colonial VFW Post",
    "address": "4093 Hill Rd",
    "city": "Vienna",
    "county": "Fairfax County",
    "state": "VA",
    "zip": "22040",
    "latitude": 38.8518,
    "longitude": -77.257,
    "total_voters": 817,
    "multi_state_registrations": 9,
    "recent_registrations": 84,
    "purged_voters": 14,
    "risk_score": 32
  },
  {
    "id": "pp-0245",
    "name": "Arthur Senior Center",
    "address": "3759 Lake Ave",
    "city": "Alexandria",
    "county": "Alexandria City",
    "state": "VA",
    "zip": "22346",
    "latitude": 38.8476,
    "longitude": -77.0442,
    "total_voters": 890,
    "multi_state_registrations": 31,
    "recent_registrations": 83,
    "purged_voters": 15,
    "risk_score": 42
  },
  {
    "id": "pp-0246",
    "name": "Pine Fire Station",
    "address": "4467 Independence Rd",
    "city": "Annandale",
    "county": "Fairfax County",
    "state": "VA",
    "zip": "22044",
    "latitude": 38.8023,
    "longitude": -77.2487,
    "total_voters": 1513,
    "multi_state_registrations": 49,
    "recent_registrations": 30,
    "purged_voters": 21,
    "risk_score": 44
  },
  {
    "id": "pp-0247",
    "name": "Jackson Community Center",
    "address": "7067 Fifth Rd",
    "city": "Falls Church",
    "county": "Fairfax County",
    "state": "VA",
    "zip": "22058",
    "latitude": 38.8855,
    "longitude": -77.1569,
    "total_voters": 1139,
    "multi_state_registrations": 34,
    "recent_registrations": 37,
    "purged_voters": 16,
    "risk_score": 32
  },
  {
    "id": "pp-0248",
    "name": "Lincoln Community Center",
    "address": "804 Jackson Ln",
    "city": "Reston",
    "county": "Fairfax County",
    "state": "VA",
    "zip": "22072",
    "latitude": 38.9718,
    "longitude": -77.3813,
    "total_voters": 1535,
    "multi_state_registrations": 36,
    "recent_registrations": 39,
    "purged_voters": 17,
    "risk_score": 44
  },
  {
    "id": "pp-0249",
    "name": "Jefferson Community Hall",
    "address": "8837 Elm Pl",
    "city": "Annandale",
    "county": "Fairfax County",
    "state": "VA",
    "zip": "22048",
    "latitude": 38.8088,
    "longitude": -77.1764,
    "total_voters": 2409,
    "multi_state_registrations": 27,
    "recent_registrations": 133,
    "purged_voters": 40,
    "risk_score": 52
  },
  {
    "id": "pp-0250",
    "name": "Lake Recreation Center",
    "address": "2970 Lake Ln",
    "city": "Manassas",
    "county": "Prince William County",
    "state": "VA",
    "zip": "20122",
    "latitude": 38.7988,
    "longitude": -77.4549,
    "total_voters": 1642,
    "multi_state_registrations": 55,
    "recent_registrations": 132,
    "purged_voters": 11,
    "risk_score": 50
  },
  {
    "id": "pp-0251",
    "name": "Taylor American Legion Post",
    "address": "4709 First Pl",
    "city": "Vienna",
    "county": "Fairfax County",
    "state": "VA",
    "zip": "22040",
    "latitude": 38.9139,
    "longitude": -77.2349,
    "total_voters": 2475,
    "multi_state_registrations": 77,
    "recent_registrations": 217,
    "purged_voters": 38,
    "risk_score": 63
  },
  {
    "id": "pp-0252",
    "name": "McKinley Township Hall",
    "address": "6949 First St",
    "city": "Arlington",
    "county": "Arlington County",
    "state": "VA",
    "zip": "22223",
    "latitude": 38.9313,
    "longitude": -77.1025,
    "total_voters": 1586,
    "multi_state_registrations": 55,
    "recent_registrations": 70,
    "purged_voters": 21,
    "risk_score": 46
  },
  {
    "id": "pp-0253",
    "name": "Lincoln Community Center",
    "address": "5238 Victory Ln",
    "city": "Annandale",
    "county": "Fairfax County",
    "state": "VA",
    "zip": "22048",
    "latitude": 38.8241,
    "longitude": -77.2613,
    "total_voters": 2035,
    "multi_state_registrations": 98,
    "recent_registrations": 65,
    "purged_voters": 46,
    "risk_score": 63
  },
  {
    "id": "pp-0254",
    "name": "Jefferson High School",
    "address": "2160 First Cir",
    "city": "Manassas",
    "county": "Prince William County",
    "state": "VA",
    "zip": "20153",
    "latitude": 38.7322,
    "longitude": -77.5165,
    "total_voters": 1519,
    "multi_state_registrations": 22,
    "recent_registrations": 116,
    "purged_voters": 31,
    "risk_score": 45
  },
  {
    "id": "pp-0255",
    "name": "Fifth Baptist Church",
    "address": "9772 Independence Blvd",
    "city": "Alexandria",
    "county": "Alexandria City",
    "state": "VA",
    "zip": "22336",
    "latitude": 38.7691,
    "longitude": -77.0445,
    "total_voters": 1034,
    "multi_state_registrations": 23,
    "recent_registrations": 58,
    "purged_voters": 8,
    "risk_score": 39
  },