[
  {
    "id": "pp-001",
    "name": "Lincoln Elementary School",
    "address": "123 Main St",
    "city": "Richmond",
    "county": "Richmond City",
    "state": "VA",
    "zip": "23219",
    "latitude": 37.5407,
    "longitude": -77.4360,
    "total_voters": 1200,
    "multi_state_registrations": 45,
    "recent_registrations": 89,
    "purged_voters": 12,
    "risk_score": 72
  },
  {
    "id": "pp-002",
    "name": "Washington High School",
    "address": "456 Ocean Ave",
    "city": "Virginia Beach",
    "county": "Virginia Beach City",
    "state": "VA",
    "zip": "23451",
    "latitude": 36.8529,
    "longitude": -75.9780,
    "total_voters": 1850,
    "multi_state_registrations": 67,
    "recent_registrations": 234,
    "purged_voters": 23,
    "risk_score": 85
  },
  {
    "id": "pp-003",
    "name": "Jefferson Community Center",
    "address": "789 Elm St",
    "city": "Norfolk",
    "county": "Norfolk City",
    "state": "VA",
    "zip": "23510",
    "latitude": 36.8508,
    "longitude": -76.2859,
    "total_voters": 950,
    "multi_state_registrations": 28,
    "recent_registrations": 45,
    "purged_voters": 8,
    "risk_score": 42
  },
  {
    "id": "pp-004",
    "name": "Roosevelt Recreation Center",
    "address": "321 Pine Dr",
    "city": "Chesapeake",
    "county": "Chesapeake City",
    "state": "VA",
    "zip": "23320",
    "latitude": 36.7682,
    "longitude": -76.2875,
    "total_voters": 1450,
    "multi_state_registrations": 52,
    "recent_registrations": 178,
    "purged_voters": 19,
    "risk_score": 68
  },
  {
    "id": "pp-005",
    "name": "Madison Public Library",
    "address": "654 Maple Ln",
    "city": "Alexandria",
    "county": "Alexandria City",
    "state": "VA",
    "zip": "22314",
    "latitude": 38.8048,
    "longitude": -77.0469,
    "total_voters": 780,
    "multi_state_registrations": 19,
    "recent_registrations": 34,
    "purged_voters": 5,
    "risk_score": 32
  },
  {
    "id": "pp-006",
    "name": "Kennedy Middle School",
    "address": "987 Birch Rd",
    "city": "Roanoke",
    "county": "Roanoke City",
    "state": "VA",
    "zip": "24011",
    "latitude": 37.2710,
    "longitude": -79.9414,
    "total_voters": 1320,
    "multi_state_registrations": 48,
    "recent_registrations": 112,
    "purged_voters": 15,
    "risk_score": 58
  },
  {
    "id": "pp-007",
    "name": "Adams Fire Station",
    "address": "147 Cedar St",
    "city": "Newport News",
    "county": "Newport News City",
    "state": "VA",
    "zip": "23601",
    "latitude": 37.0871,
    "longitude": -76.4730,
    "total_voters": 620,
    "multi_state_registrations": 15,
    "recent_registrations": 28,
    "purged_voters": 4,
    "risk_score": 28
  },
  {
    "id": "pp-008",
    "name": "Wilson Senior Center",
    "address": "258 Walnut Ave",
    "city": "Hampton",
    "county": "Hampton City",
    "state": "VA",
    "zip": "23669",
    "latitude": 37.0299,
    "longitude": -76.3452,
    "total_voters": 1050,
    "multi_state_registrations": 38,
    "recent_registrations": 67,
    "purged_voters": 11,
    "risk_score": 51
  },
  {
    "id": "pp-009",
    "name": "Grant Elementary School",
    "address": "369 Spruce Way",
    "city": "Arlington",
    "county": "Arlington County",
    "state": "VA",
    "zip": "22203",
    "latitude": 38.8816,
    "longitude": -77.0910,
    "total_voters": 1580,
    "multi_state_registrations": 61,
    "recent_registrations": 198,
    "purged_voters": 21,
    "risk_score": 76
  },
  {
    "id": "pp-010",
    "name": "Harrison Baptist Church",
    "address": "741 Willow Ct",
    "city": "Lynchburg",
    "county": "Lynchburg City",
    "state": "VA",
    "zip": "24501",
    "latitude": 37.4138,
    "longitude": -79.1422,
    "total_voters": 890,
    "multi_state_registrations": 26,
    "recent_registrations": 41,
    "purged_voters": 7,
    "risk_score": 38
  },
  {
    "id": "pp-011",
    "name": "Truman Community Hall",
    "address": "852 Ash Blvd",
    "city": "Fairfax",
    "county": "Fairfax County",
    "state": "VA",
    "zip": "22030",
    "latitude": 38.8462,
    "longitude": -77.3064,
    "total_voters": 1680,
    "multi_state_registrations": 72,
    "recent_registrations": 245,
    "purged_voters": 28,
    "risk_score": 88
  },
  {
    "id": "pp-012",
    "name": "Eisenhower VFW Post",
    "address": "963 Cherry St",
    "city": "Manassas",
    "county": "Prince William County",
    "state": "VA",
    "zip": "20110",
    "latitude": 38.7509,
    "longitude": -77.4753,
    "total_voters": 740,
    "multi_state_registrations": 21,
    "recent_registrations": 35,
    "purged_voters": 6,
    "risk_score": 35
  },
  {
    "id": "pp-013",
    "name": "Monroe Methodist Church",
    "address": "159 Poplar Dr",
    "city": "Charlottesville",
    "county": "Albemarle County",
    "state": "VA",
    "zip": "22902",
    "latitude": 38.0293,
    "longitude": -78.4767,
    "total_voters": 1120,
    "multi_state_registrations": 42,
    "recent_registrations": 89,
    "purged_voters": 13,
    "risk_score": 55
  },
  {
    "id": "pp-014",
    "name": "Jackson Civic Center",
    "address": "357 Hickory Pl",
    "city": "Loudoun",
    "county": "Loudoun County",
    "state": "VA",
    "zip": "20175",
    "latitude": 39.0438,
    "longitude": -77.4875,
    "total_voters": 1920,
    "multi_state_registrations": 89,
    "recent_registrations": 312,
    "purged_voters": 34,
    "risk_score": 92
  },
  {
    "id": "pp-015",
    "name": "Tyler Township Hall",
    "address": "468 Dogwood Ln",
    "city": "Suffolk",
    "county": "Suffolk City",
    "state": "VA",
    "zip": "23434",
    "latitude": 36.7282,
    "longitude": -76.5836,
    "total_voters": 830,
    "multi_state_registrations": 24,
    "recent_registrations": 38,
    "purged_voters": 6,
    "risk_score": 36
  },
  {
    "id": "pp-016",
    "name": "Pierce High School",
    "address": "579 Sycamore Ave",
    "city": "Richmond",
    "county": "Henrico County",
    "state": "VA",
    "zip": "23294",
    "latitude": 37.6526,
    "longitude": -77.4847,
    "total_voters": 1540,
    "multi_state_registrations": 58,
    "recent_registrations": 189,
    "purged_voters": 20,
    "risk_score": 73
  },
  {
    "id": "pp-017",
    "name": "Buchanan Elementary",
    "address": "680 Magnolia St",
    "city": "Petersburg",
    "county": "Petersburg City",
    "state": "VA",
    "zip": "23803",
    "latitude": 37.2279,
    "longitude": -77.4019,
    "total_voters": 970,
    "multi_state_registrations": 31,
    "recent_registrations": 52,
    "purged_voters": 9,
    "risk_score": 45
  },
  {
    "id": "pp-018",
    "name": "Polk Community Center",
    "address": "791 Beech Rd",
    "city": "Chesapeake",
    "county": "Chesterfield County",
    "state": "VA",
    "zip": "23832",
    "latitude": 37.3771,
    "longitude": -77.5047,
    "total_voters": 1240,
    "multi_state_registrations": 46,
    "recent_registrations": 98,
    "purged_voters": 14,
    "risk_score": 61
  },
  {
    "id": "pp-019",
    "name": "Garfield Recreation Hall",
    "address": "802 Redwood Dr",
    "city": "Fredericksburg",
    "county": "Spotsylvania County",
    "state": "VA",
    "zip": "22407",
    "latitude": 38.3032,
    "longitude": -77.4605,
    "total_voters": 1410,
    "multi_state_registrations": 53,
    "recent_registrations": 156,
    "purged_voters": 18,
    "risk_score": 66
  },
  {
    "id": "pp-020",
    "name": "Hayes Public Library",
    "address": "913 Cypress Ct",
    "city": "Blacksburg",
    "county": "Montgomery County",
    "state": "VA",
    "zip": "24060",
    "latitude": 37.2296,
    "longitude": -80.4139,
    "total_voters": 710,
    "multi_state_registrations": 18,
    "recent_registrations": 31,
    "purged_voters": 5,
    "risk_score": 29
  }
]
