[
  {
    "id": "pp-001",
    "name": "Lincoln Elementary School",
    "address": "123 Main St",
    "city": "Columbus",
    "county": "Franklin",
    "state": "OH",
    "zip": "43215",
    "latitude": 39.9612,
    "longitude": -82.9988,
    "total_voters": 1200,
    "multi_state_registrations": 45,
    "recent_registrations": 89,
    "purged_voters": 12,
    "risk_score": 72
  },
  {
    "id": "pp-002",
    "name": "Washington High School",
    "address": "456 Oak Ave",
    "city": "Cleveland",
    "county": "Cuyahoga",
    "state": "OH",
    "zip": "44101",
    "latitude": 41.4993,
    "longitude": -81.6944,
    "total_voters": 1850,
    "multi_state_registrations": 67,
    "recent_registrations": 234,
    "purged_voters": 23,
    "risk_score": 85
  },
  {
    "id": "pp-003",
    "name": "Jefferson Community Center",
    "address": "789 Elm St",
    "city": "Cincinnati",
    "county": "Hamilton",
    "state": "OH",
    "zip": "45202",
    "latitude": 39.1031,
    "longitude": -84.5120,
    "total_voters": 950,
    "multi_state_registrations": 28,
    "recent_registrations": 45,
    "purged_voters": 8,
    "risk_score": 42
  },
  {
    "id": "pp-004",
    "name": "Roosevelt Recreation Center",
    "address": "321 Pine Dr",
    "city": "Toledo",
    "county": "Lucas",
    "state": "OH",
    "zip": "43604",
    "latitude": 41.6528,
    "longitude": -83.5379,
    "total_voters": 1450,
    "multi_state_registrations": 52,
    "recent_registrations": 178,
    "purged_voters": 19,
    "risk_score": 68
  },
  {
    "id": "pp-005",
    "name": "Madison Public Library",
    "address": "654 Maple Ln",
    "city": "Akron",
    "county": "Summit",
    "state": "OH",
    "zip": "44308",
    "latitude": 41.0814,
    "longitude": -81.5190,
    "total_voters": 780,
    "multi_state_registrations": 19,
    "recent_registrations": 34,
    "purged_voters": 5,
    "risk_score": 32
  },
  {
    "id": "pp-006",
    "name": "Kennedy Middle School",
    "address": "987 Birch Rd",
    "city": "Dayton",
    "county": "Montgomery",
    "state": "OH",
    "zip": "45402",
    "latitude": 39.7589,
    "longitude": -84.1916,
    "total_voters": 1320,
    "multi_state_registrations": 48,
    "recent_registrations": 112,
    "purged_voters": 15,
    "risk_score": 58
  },
  {
    "id": "pp-007",
    "name": "Adams Fire Station",
    "address": "147 Cedar St",
    "city": "Youngstown",
    "county": "Mahoning",
    "state": "OH",
    "zip": "44503",
    "latitude": 41.0998,
    "longitude": -80.6495,
    "total_voters": 620,
    "multi_state_registrations": 15,
    "recent_registrations": 28,
    "purged_voters": 4,
    "risk_score": 28
  },
  {
    "id": "pp-008",
    "name": "Wilson Senior Center",
    "address": "258 Walnut Ave",
    "city": "Canton",
    "county": "Stark",
    "state": "OH",
    "zip": "44702",
    "latitude": 40.7989,
    "longitude": -81.3784,
    "total_voters": 1050,
    "multi_state_registrations": 38,
    "recent_registrations": 67,
    "purged_voters": 11,
    "risk_score": 51
  },
  {
    "id": "pp-009",
    "name": "Grant Elementary School",
    "address": "369 Spruce Way",
    "city": "Parma",
    "county": "Cuyahoga",
    "state": "OH",
    "zip": "44129",
    "latitude": 41.3845,
    "longitude": -81.7229,
    "total_voters": 1580,
    "multi_state_registrations": 61,
    "recent_registrations": 198,
    "purged_voters": 21,
    "risk_score": 76
  },
  {
    "id": "pp-010",
    "name": "Harrison Baptist Church",
    "address": "741 Willow Ct",
    "city": "Lorain",
    "county": "Lorain",
    "state": "OH",
    "zip": "44052",
    "latitude": 41.4528,
    "longitude": -82.1821,
    "total_voters": 890,
    "multi_state_registrations": 26,
    "recent_registrations": 41,
    "purged_voters": 7,
    "risk_score": 38
  },
  {
    "id": "pp-011",
    "name": "Truman Community Hall",
    "address": "852 Ash Blvd",
    "city": "Columbus",
    "county": "Franklin",
    "state": "OH",
    "zip": "43229",
    "latitude": 40.0583,
    "longitude": -82.9988,
    "total_voters": 1680,
    "multi_state_registrations": 72,
    "recent_registrations": 245,
    "purged_voters": 28,
    "risk_score": 88
  },
  {
    "id": "pp-012",
    "name": "Eisenhower VFW Post",
    "address": "963 Cherry St",
    "city": "Hamilton",
    "county": "Butler",
    "state": "OH",
    "zip": "45011",
    "latitude": 39.3995,
    "longitude": -84.5613,
    "total_voters": 740,
    "multi_state_registrations": 21,
    "recent_registrations": 35,
    "purged_voters": 6,
    "risk_score": 35
  },
  {
    "id": "pp-013",
    "name": "Monroe Methodist Church",
    "address": "159 Poplar Dr",
    "city": "Springfield",
    "county": "Clark",
    "state": "OH",
    "zip": "45503",
    "latitude": 39.9242,
    "longitude": -83.8088,
    "total_voters": 1120,
    "multi_state_registrations": 42,
    "recent_registrations": 89,
    "purged_voters": 13,
    "risk_score": 55
  },
  {
    "id": "pp-014",
    "name": "Jackson Civic Center",
    "address": "357 Hickory Pl",
    "city": "Lakewood",
    "county": "Cuyahoga",
    "state": "OH",
    "zip": "44107",
    "latitude": 41.4820,
    "longitude": -81.7982,
    "total_voters": 1920,
    "multi_state_registrations": 89,
    "recent_registrations": 312,
    "purged_voters": 34,
    "risk_score": 92
  },
  {
    "id": "pp-015",
    "name": "Tyler Township Hall",
    "address": "468 Dogwood Ln",
    "city": "Mentor",
    "county": "Lake",
    "state": "OH",
    "zip": "44060",
    "latitude": 41.6662,
    "longitude": -81.3395,
    "total_voters": 830,
    "multi_state_registrations": 24,
    "recent_registrations": 38,
    "purged_voters": 6,
    "risk_score": 36
  },
  {
    "id": "pp-016",
    "name": "Pierce High School",
    "address": "579 Sycamore Ave",
    "city": "Cleveland",
    "county": "Cuyahoga",
    "state": "OH",
    "zip": "44113",
    "latitude": 41.4822,
    "longitude": -81.7041,
    "total_voters": 1540,
    "multi_state_registrations": 58,
    "recent_registrations": 189,
    "purged_voters": 20,
    "risk_score": 73
  },
  {
    "id": "pp-017",
    "name": "Buchanan Elementary",
    "address": "680 Magnolia St",
    "city": "Elyria",
    "county": "Lorain",
    "state": "OH",
    "zip": "44035",
    "latitude": 41.3683,
    "longitude": -82.1076,
    "total_voters": 970,
    "multi_state_registrations": 31,
    "recent_registrations": 52,
    "purged_voters": 9,
    "risk_score": 45
  },
  {
    "id": "pp-018",
    "name": "Polk Community Center",
    "address": "791 Beech Rd",
    "city": "Newark",
    "county": "Licking",
    "state": "OH",
    "zip": "43055",
    "latitude": 40.0581,
    "longitude": -82.4013,
    "total_voters": 1240,
    "multi_state_registrations": 46,
    "recent_registrations": 98,
    "purged_voters": 14,
    "risk_score": 61
  },
  {
    "id": "pp-019",
    "name": "Garfield Recreation Hall",
    "address": "802 Redwood Dr",
    "city": "Dublin",
    "county": "Franklin",
    "state": "OH",
    "zip": "43017",
    "latitude": 40.0992,
    "longitude": -83.1141,
    "total_voters": 1410,
    "multi_state_registrations": 53,
    "recent_registrations": 156,
    "purged_voters": 18,
    "risk_score": 66
  },
  {
    "id": "pp-020",
    "name": "Hayes Public Library",
    "address": "913 Cypress Ct",
    "city": "Westerville",
    "county": "Franklin",
    "state": "OH",
    "zip": "43081",
    "latitude": 40.1262,
    "longitude": -82.9291,
    "total_voters": 710,
    "multi_state_registrations": 18,
    "recent_registrations": 31,
    "purged_voters": 5,
    "risk_score": 29
  }
]
